Identifiant;Nom du commerce;Numéro voie;Nom voie;Code postal;Nom commune;Longitude;Latitude;geo_shape;geo_point_2d
895;LES THES D EMILIE;76;BOULEVARD HAUSSMANN;0;;2.326254;48.874027;"{""coordinates"": [2.3262540001800978, 48.87402699888152], ""type"": ""Point""}";48.87402699888152, 2.3262540001800978
928;CENTRE PARIS ANIM  / CENTRE SOCIAL ANNIE FRATELLINI;36;QUAI DE LA RAPEE;0;;2.373244;48.841469;"{""coordinates"": [2.373244000087886, 48.84146899951015], ""type"": ""Point""}";48.84146899951015, 2.373244000087886
1015;L ENERGIE DES COULEURS;93;AVENUE DE LA BOURDONNAIS;0;;2.303369;48.855748;"{""coordinates"": [2.3033690003552647, 48.85574799882699], ""type"": ""Point""}";48.85574799882699, 2.3033690003552647
1080;LE WAGON BLEU;7;RUE BOURSAULT;0;;2.320537;48.88299;"{""coordinates"": [2.3205369994511327, 48.882989999094775], ""type"": ""Point""}";48.882989999094775, 2.3205369994511327
1091;MOT;6;RUE DE CONSTANTINOPLE;0;;2.321157;48.879819;"{""coordinates"": [2.32115700001759, 48.87981899944235], ""type"": ""Point""}";48.87981899944235, 2.32115700001759
948;LA GAITE LYRIQUE;0;RUE PAPIN;0;;2.353591;48.866831;"{""coordinates"": [2.353590999906657, 48.866830998822884], ""type"": ""Point""}";48.866830998822884, 2.353590999906657
1352;OPTIC 2000 PARIS CLIGNANCOURT;11;RUE DE CLIGNANCOURT;0;;2.347048;48.884511;"{""coordinates"": [2.347048000572575, 48.88451099892872], ""type"": ""Point""}";48.88451099892872, 2.347048000572575
1361;LB COIFFURE;3;RUE BLEUE;0;;2.347605;48.875762;"{""coordinates"": [2.3476049995818236, 48.87576199893159], ""type"": ""Point""}";48.87576199893159, 2.3476049995818236
1384;MICHELE;111;RUE DU FAUBOURG POISSONNIERE;0;;2.349052;48.877664;"{""coordinates"": [2.349052000194765, 48.877663999135166], ""type"": ""Point""}";48.877663999135166, 2.349052000194765
1480;LIBRAIRIE MARUANI LIBRAIRIE CAFE LECTURE GOURMANDE;171;BOULEVARD VINCENT AURIOL;0;;2.360313;48.831989;"{""coordinates"": [2.360312999892108, 48.8319889991721], ""type"": ""Point""}";48.8319889991721, 2.360312999892108
1396;LE BONNE NOUVELLE;24;BOULEVARD DE BONNE NOUVELLE;0;;2.350461;48.870425;"{""coordinates"": [2.3504610002458817, 48.87042499867527], ""type"": ""Point""}";48.87042499867527, 2.3504610002458817
1417;RIZ DJONDJON;291;RUE SAINT-DENIS;0;;2.352357;48.86949;"{""coordinates"": [2.3523570005024155, 48.86948999930912], ""type"": ""Point""}";48.86948999930912, 2.3523570005024155
1177;CHEZ LOULOU TATTOO;16;RUE ERNEST CRESSON;0;;2.329083;48.832775;"{""coordinates"": [2.3290829995971905, 48.832774999022696], ""type"": ""Point""}";48.832774999022696, 2.3290829995971905
1234;LA CAVE D EDOUARD;83;RUE LAMARCK;0;;2.335933;48.890267;"{""coordinates"": [2.3359330003046197, 48.89026699912174], ""type"": ""Point""}";48.89026699912174, 2.3359330003046197
1278;MUSCARI;82;BOULEVARD DE PORT-ROYAL;0;;2.340184;48.838955;"{""coordinates"": [2.340183999330031, 48.838954999079554], ""type"": ""Point""}";48.838954999079554, 2.340183999330031
1284;POPPY;2;RUE MILTON;0;;2.340557;48.876725;"{""coordinates"": [2.340557000174667, 48.876724999325354], ""type"": ""Point""}";48.876724999325354, 2.340557000174667
1322;LE PETIT GOURMAND;56;RUE LETORT;0;;2.344048;48.896901;"{""coordinates"": [2.344047999768015, 48.89690099935388], ""type"": ""Point""}";48.89690099935388, 2.344047999768015
1769;LEGUMES DES JOURS;109;RUE DE LA REUNION;0;;2.399562;48.857232;"{""coordinates"": [2.399562000283997, 48.857231999489194], ""type"": ""Point""}";48.857231999489194, 2.399562000283997
1776;LA TRUITE ENCHANTEE;80;RUE DE BAGNOLET;0;;2.401006;48.858462;"{""coordinates"": [2.401005999679574, 48.85846199944182], ""type"": ""Point""}";48.85846199944182, 2.401005999679574
1517;MOI ET MES ENFANTS;7;RUE DU DOCTEUR CHARLES RICHET;0;;2.364419;48.831968;"{""coordinates"": [2.3644190003546774, 48.83196799929108], ""type"": ""Point""}";48.83196799929108, 2.3644190003546774
1534;BLEND;1;BOULEVARD DES FILLES DU CALVAIRE;0;;2.366955;48.861116;"{""coordinates"": [2.3669549993658197, 48.86111599950893], ""type"": ""Point""}";48.86111599950893, 2.3669549993658197
1535;SATIO;11;RUE ALIBERT;0;;2.366956;48.871477;"{""coordinates"": [2.3669559994692007, 48.87147699948298], ""type"": ""Point""}";48.87147699948298, 2.3669559994692007
1566;LE BARLU;10;QUAI DE LA SEINE;0;;2.371216;48.88494;"{""coordinates"": [2.371215999492308, 48.88493999926906], ""type"": ""Point""}";48.88493999926906, 2.371215999492308
1631;O SOLEIL;21;RUE DE PATAY;0;;2.375449;48.824919;"{""coordinates"": [2.3754489994222623, 48.82491899925615], ""type"": ""Point""}";48.82491899925615, 2.3754489994222623
1639;COMME PIEDS NUS;58;AVENUE DE LA REPUBLIQUE;0;;2.376113;48.864819;"{""coordinates"": [2.3761129993769887, 48.864818999224525], ""type"": ""Point""}";48.864818999224525, 2.3761129993769887
1648;JOHNNY S BAR;8;BOULEVARD DE BERCY;0;;2.37777;48.839223;"{""coordinates"": [2.3777699993380557, 48.83922299900349], ""type"": ""Point""}";48.83922299900349, 2.3777699993380557
1652;L AMI PIERRE;5;RUE DE LA MAIN D OR;0;;2.378266;48.851543;"{""coordinates"": [2.378266000043114, 48.85154299870577], ""type"": ""Point""}";48.85154299870577, 2.378266000043114
1667;EPICERIE CIRCULAIRE;6;RUE PIERRE GIRARD;0;;2.379873;48.885806;"{""coordinates"": [2.3798729994373544, 48.885805999202], ""type"": ""Point""}";48.885805999202, 2.3798729994373544
1884;MUSEE D ART MODERNE DE LA VILLE DE PARIS;11;AVENUE DU PRESIDENT WILSON;0;;2.297555;48.864765;"{""coordinates"": [2.2975550002623986, 48.86476499939044], ""type"": ""Point""}";48.86476499939044, 2.2975550002623986
1941;BIBLIOTHEQUE VACLAV HAVEL;26;ESPLANADE NATHALIE SARRAUTE;0;;2.362963;48.8890077;"{""coordinates"": [2.362962999366511, 48.889007699293764], ""type"": ""Point""}";48.889007699293764, 2.362962999366511
1942;BIBLIOTHEQUE FRANCOIS VILLON;81;BOULEVARD DE LA VILLETTE;0;;2.370797;48.877205;"{""coordinates"": [2.3707969999354384, 48.877204999299174], ""type"": ""Point""}";48.877204999299174, 2.3707969999354384
1948;METRO PORTE MAILLOT;87;AVENUE DE LA GRANDE ARMEE;0;;2.282886;48.877534;"{""coordinates"": [2.282885999488505, 48.87753399914226], ""type"": ""Point""}";48.87753399914226, 2.282885999488505
1952;METRO CHATELET;0;PLACE DU CHATELET;0;;2.3475923;48.8576328;"{""coordinates"": [2.347592299750882, 48.8576327990237], ""type"": ""Point""}";48.8576327990237, 2.347592299750882
1982;METRO CONVENTION;0;PLACE GENEVIEVE-DE-GAULLE-ANTHONIOZ;0;;2.2962295;48.8374989;"{""coordinates"": [2.2962295000460617, 48.837498899346876], ""type"": ""Point""}";48.837498899346876, 2.2962295000460617
1984;METRO PORTE DE VERSAILLES;1;AVENUE ERNEST RENAN;0;;2.2880891;48.8322089;"{""coordinates"": [2.2880890998900627, 48.832208899052944], ""type"": ""Point""}";48.832208899052944, 2.2880890998900627
1839;POKE BAR CHAMPS ELYSEES;120;RUE LA BOETIE;0;;2.30686;48.871285;"{""coordinates"": [2.3068599994627137, 48.871284998952405], ""type"": ""Point""}";48.871284998952405, 2.3068599994627137
1855;GRAND POWERS;52;RUE FRANCOIS 1ER;0;;2.303157;48.869131;"{""coordinates"": [2.303157000545382, 48.86913099872929], ""type"": ""Point""}";48.86913099872929, 2.303157000545382
1858;APARTHOTEL ADAGIO PARIS NATION;15;RUE LAMBLARDIE;0;;2.397677;48.840577;"{""coordinates"": [2.397677000497832, 48.84057699873796], ""type"": ""Point""}";48.84057699873796, 2.397677000497832
1990;KAVIARI DELIKATESSEN;63;RUE DE GRENELLE;0;;2.3247993;48.8548533;"{""coordinates"": [2.3247993001961236, 48.8548532986577], ""type"": ""Point""}";48.8548532986577, 2.3247993001961236
1920;HOTEL DU ROND POINT DES CHAMPS-ELYSEES - ESPRIT DE FRANCE;10;RUE DE PONTHIEU;0;;2.3106745;48.8703839;"{""coordinates"": [2.310674500389881, 48.870383898631744], ""type"": ""Point""}";48.870383898631744, 2.310674500389881
1931;MBM PARIS;22;RUE DU TEMPLE;0;;2.3536601;48.8588189;"{""coordinates"": [2.3536601002258855, 48.85881889898656], ""type"": ""Point""}";48.85881889898656, 2.3536601002258855
886;BIO C  BON TERNES;79;AVENUE DES TERNES;0;;2.289263;48.879581;"{""coordinates"": [2.289263000534986, 48.87958099940288], ""type"": ""Point""}";48.87958099940288, 2.289263000534986
913;NUMERO 220;220;RUE SAINT-JACQUES;0;;2.342179;48.844917;"{""coordinates"": [2.34217900045697, 48.844916998928475], ""type"": ""Point""}";48.844916998928475, 2.34217900045697
991;PHARMACIE CONVENTION CROIX NIVERT;131;RUE DE LA CONVENTION;0;;2.289985;48.84035;"{""coordinates"": [2.2899849995435524, 48.840349998678185], ""type"": ""Point""}";48.840349998678185, 2.2899849995435524
996;MALT IN STOCK;354;RUE DE VAUGIRARD;0;;2.293148;48.835791;"{""coordinates"": [2.293148000374203, 48.83579099891436], ""type"": ""Point""}";48.83579099891436, 2.293148000374203
1009;PHARMACIE DE LA PORTE BRANCION;92;BOULEVARD LEFEBVRE;0;;2.300841;48.828502;"{""coordinates"": [2.30084099941901, 48.82850199887891], ""type"": ""Point""}";48.82850199887891, 2.30084099941901
1041;LIBERTES BOULANGERIE;58;RUE SAINT-DOMINIQUE;0;;2.3091;48.859907;"{""coordinates"": [2.3091000001320032, 48.85990699887247], ""type"": ""Point""}";48.85990699887247, 2.3091000001320032
1048;BOULANGERIE DU PALAIS;123;BOULEVARD BESSIERES;0;;2.31452;48.89447;"{""coordinates"": [2.314520000351584, 48.894469998975595], ""type"": ""Point""}";48.894469998975595, 2.314520000351584
1052;LES OPTICIENS MALESHERBES;70;BOULEVARD MALESHERBES;0;;2.315701;48.87853;"{""coordinates"": [2.315700999560515, 48.87852999891878], ""type"": ""Point""}";48.87852999891878, 2.315700999560515
1064;PHARMACIE BASSEREAU;70;RUE LEGENDRE;0;;2.317913;48.886224;"{""coordinates"": [2.3179130006305337, 48.88622399881316], ""type"": ""Point""}";48.88622399881316, 2.3179130006305337
1095;DREAM CAFE;39;BOULEVARD DU MONTPARNASSE;0;;2.32138;48.844921;"{""coordinates"": [2.321380000072367, 48.84492099948672], ""type"": ""Point""}";48.84492099948672, 2.321380000072367
942;BIOCOOP LES FETES;1;RUE DU PRE SAINT-GERVAIS;0;;2.392227;48.87577;"{""coordinates"": [2.3922270000978663, 48.87576999925575], ""type"": ""Point""}";48.87576999925575, 2.3922270000978663
967;HOTEL PLAZA TOUR EIFFEL;32;RUE GREUZE;0;;2.282247;48.864521;"{""coordinates"": [2.2822469995536334, 48.86452099886757], ""type"": ""Point""}";48.86452099886757, 2.2822469995536334
1349;PAUL;63;RUE MONTORGUEIL;0;;2.346945;48.865766;"{""coordinates"": [2.346945000494332, 48.865765998944575], ""type"": ""Point""}";48.865765998944575, 2.346945000494332
1368;LA TETE A TOTO;22;RUE POISSONNIERE;0;;2.347893;48.86954;"{""coordinates"": [2.347892999854325, 48.86953999891349], ""type"": ""Point""}";48.86953999891349, 2.347892999854325
1378;SWEET KT;42;RUE DE LA MONTAGNE SAINTE-GENEVIEVE;0;;2.348461;48.847748;"{""coordinates"": [2.348460999933509, 48.8477479986224], ""type"": ""Point""}";48.8477479986224, 2.348460999933509
1418;LAPHONY;73;RUE MONGE;0;;2.35241;48.843503;"{""coordinates"": [2.3524099993879144, 48.843502999148264], ""type"": ""Point""}";48.843502999148264, 2.3524099993879144
1115;PINOCCHIO;19;BOULEVARD EDGAR QUINET;0;;2.323891;48.841197;"{""coordinates"": [2.3238910006233473, 48.84119699885192], ""type"": ""Point""}";48.84119699885192, 2.3238910006233473
1144;DECATHLON MADELEINE;23;BOULEVARD DE LA MADELEINE;0;;2.325463;48.869311;"{""coordinates"": [2.3254629996490936, 48.869310999356685], ""type"": ""Point""}";48.869310999356685, 2.3254629996490936
1145;CREPERIE LE PETIT JOSSELIN;59;RUE DU MONTPARNASSE;0;;2.325522;48.841903;"{""coordinates"": [2.325522000413354, 48.84190299871722], ""type"": ""Point""}";48.84190299871722, 2.325522000413354
1218;CLASS CROUTE;156;BOULEVARD DU MONTPARNASSE;0;;2.334559;48.840156;"{""coordinates"": [2.3345589998282663, 48.84015599874886], ""type"": ""Point""}";48.84015599874886, 2.3345589998282663
1219;PHARMACIE DARMON AGNES;64;RUE DAMREMONT;0;;2.334579;48.890819;"{""coordinates"": [2.334578999972906, 48.89081899943594], ""type"": ""Point""}";48.89081899943594, 2.334578999972906
1261;GRAND HOTEL DU PALAIS ROYAL;4;RUE DE VALOIS;0;;2.337788;48.863112;"{""coordinates"": [2.3377880002842746, 48.86311199884436], ""type"": ""Point""}";48.86311199884436, 2.3377880002842746
1283;PHARMACIE SAINT MICHEL;71;BOULEVARD SAINT-MICHEL;0;;2.340517;48.846322;"{""coordinates"": [2.3405170002725058, 48.84632199873597], ""type"": ""Point""}";48.84632199873597, 2.3405170002725058
1782;LE PICOTIN;35;RUE SIBUET;0;;2.402276;48.843489;"{""coordinates"": [2.4022759993269487, 48.843488998699655], ""type"": ""Point""}";48.843488998699655, 2.4022759993269487
1791;BRIEUC COIFFURE;88;AVENUE DU GENERAL MICHEL BIZOT;0;;2.403852;48.837304;"{""coordinates"": [2.4038519999758208, 48.837303999154436], ""type"": ""Point""}";48.837303999154436, 2.4038519999758208
1512;FRIC FRAC;79;QUAI DE VALMY;0;;2.36401;48.872409;"{""coordinates"": [2.364010000109761, 48.872408999513674], ""type"": ""Point""}";48.872408999513674, 2.364010000109761
1543;ABSOLUT HOTEL PARIS;1;RUE DE LA FONTAINE AU ROI;0;;2.368115;48.868825;"{""coordinates"": [2.368115000143402, 48.86882499934785], ""type"": ""Point""}";48.86882499934785, 2.368115000143402
1576;ATELIER DU TEMPS PASSE;3;AVENUE DAUMESNIL;0;;2.371753;48.849221;"{""coordinates"": [2.371753000466703, 48.8492209988579], ""type"": ""Point""}";48.8492209988579, 2.371753000466703
1586;BIOCOOP BASTILLE;10;RUE BOULLE;0;;2.372267;48.856821;"{""coordinates"": [2.372266999608967, 48.85682099887447], ""type"": ""Point""}";48.85682099887447, 2.372266999608967
1614;SAISON;62;RUE OBERKAMPF;0;;2.374155;48.86489;"{""coordinates"": [2.374155000135766, 48.864889998702935], ""type"": ""Point""}";48.864889998702935, 2.374155000135766
1668;LE RELAIS DE BELLEVILLE;34;RUE DE BELLEVILLE;0;;2.380104;48.872827;"{""coordinates"": [2.380104000367507, 48.872826998888726], ""type"": ""Point""}";48.872826998888726, 2.380104000367507
1671;L AMI COQ;110;RUE DE BERCY;0;;2.380483;48.839374;"{""coordinates"": [2.3804830003518074, 48.83937399943456], ""type"": ""Point""}";48.83937399943456, 2.3804830003518074
1933;HERBORISTERIE KAMOMILLE;111;RUE DU THEATRE;0;;2.2950122;48.8463113;"{""coordinates"": [2.295012200580273, 48.84631129947568], ""type"": ""Point""}";48.84631129947568, 2.295012200580273
1953;METRO DENFERT-ROCHEREAU;4;AVENUE DU COLONEL HENRI ROL-TANGUY;0;;2.3318805;48.8342504;"{""coordinates"": [2.3318804996078235, 48.834250399338714], ""type"": ""Point""}";48.834250399338714, 2.3318804996078235
1959;METRO BALARD;10;BOULEVARD VICTOR;0;;2.277342;48.8349826;"{""coordinates"": [2.2773419996239834, 48.834982598948194], ""type"": ""Point""}";48.834982598948194, 2.2773419996239834
1967;RER AUBER;0;RUE SCRIBE / RUE AUBER;0;;2.3305973;48.8716346;"{""coordinates"": [2.330597299416824, 48.87163459937], ""type"": ""Point""}";48.87163459937, 2.330597299416824
1969;METRO CHARLES DE GAULLE-ETOILE;0;PLACE CHARLES DE GAULLE / AVENUE HOCHE;0;;2.2959144;48.8743693;"{""coordinates"": [2.2959143993748246, 48.87436929894459], ""type"": ""Point""}";48.87436929894459, 2.2959143993748246
1972;METRO MARCADET-POISSONNIERS;69;BOULEVARD BARBES;0;;2.349499;48.890607;"{""coordinates"": [2.3494990001067415, 48.89060699899977], ""type"": ""Point""}";48.89060699899977, 2.3494990001067415
1985;METRO SEVRES-BABYLONE;18;RUE DE SEVRES;0;;2.3270571;48.8515852;"{""coordinates"": [2.3270570998920705, 48.85158519914446], ""type"": ""Point""}";48.85158519914446, 2.3270570998920705
1802;MONCEAU FLEURS;5;RUE FREDERIC LOLIEE;0;;2.40609;48.849545;"{""coordinates"": [2.406090000520609, 48.84954499932732], ""type"": ""Point""}";48.84954499932732, 2.406090000520609
1808;BAR A IODE;0;AVENUE DE VERSAILLES;0;;2.277282;48.850421;"{""coordinates"": [2.27728199998617, 48.85042099917453], ""type"": ""Point""}";48.85042099917453, 2.27728199998617
1821;SAVONNERIE BABA;0;PLACE MARTHE SIMARD;0;;2.304803;48.826185;"{""coordinates"": [2.304802999488557, 48.82618499867235], ""type"": ""Point""}";48.82618499867235, 2.304802999488557
1822;ACERMA;22;QUAI DE LA LOIRE;0;;2.372675;48.884143;"{""coordinates"": [2.3726749995075935, 48.884142999038055], ""type"": ""Point""}";48.884142999038055, 2.3726749995075935
1840;COPPER BRANCH;0;RUE DE RENNES;0;;2.325482;48.845327;"{""coordinates"": [2.325481999567876, 48.84532699897453], ""type"": ""Point""}";48.84532699897453, 2.325481999567876
1862;BIOCOOP DES LILAS;14;RUE RAYMONDE SALEZ;0;;2.417319;48.879375;"{""coordinates"": [2.417318999685866, 48.879374999291], ""type"": ""Point""}";48.879374999291, 2.417318999685866
1013;LIBRAIRIE LA 25E HEURE;8;PLACE DU GENERAL BEURET;0;;2.302825;48.841783;"{""coordinates"": [2.302824999694255, 48.8417829989966], ""type"": ""Point""}";48.8417829989966, 2.302824999694255
1988;BIBLIOTHEQUE VAUGIRARD;154;RUE LECOURBE;0;;2.2993589;48.8417004;"{""coordinates"": [2.2993588994203487, 48.8417003988534], ""type"": ""Point""}";48.8417003988534, 2.2993588994203487
919;LES ARTIZANS;30;RUE MONTORGUEIL;0;;2.346513;48.863772;"{""coordinates"": [2.346512999800403, 48.863771999011604], ""type"": ""Point""}";48.863771999011604, 2.346512999800403
982;DUO DES CHAMPS;42;AVENUE FELIX FAURE;0;;2.288204;48.841339;"{""coordinates"": [2.288203999465952, 48.84133899862578], ""type"": ""Point""}";48.84133899862578, 2.288203999465952
1004;DECATHLON WAGRAM;26;AVENUE DE WAGRAM;0;;2.29728;48.87647;"{""coordinates"": [2.2972800002381115, 48.87646999874783], ""type"": ""Point""}";48.87646999874783, 2.2972800002381115
1020;LA TERRASSE;2;PLACE DE L ECOLE MILITAIRE;0;;2.305759;48.85474;"{""coordinates"": [2.305758999349807, 48.85473999939944], ""type"": ""Point""}";48.85473999939944, 2.305758999349807
1031;KAVIARI DELIKATESSEN;57;RUE CLER;0;;2.307037;48.855772;"{""coordinates"": [2.307037000489703, 48.85577199947351], ""type"": ""Point""}";48.85577199947351, 2.307037000489703
1043;HOTEL DE FRANCE INVALIDES;102;BOULEVARD DE LA TOUR-MAUBOURG;0;;2.30932;48.853482;"{""coordinates"": [2.309320000111528, 48.85348199887584], ""type"": ""Point""}";48.85348199887584, 2.309320000111528
1057;LE DUROC;88;RUE DE SEVRES;0;;2.317179;48.847132;"{""coordinates"": [2.3171789999188555, 48.84713199935557], ""type"": ""Point""}";48.84713199935557, 2.3171789999188555
1071;QUATREHOMME;62;RUE DE SEVRES;0;;2.319611;48.848042;"{""coordinates"": [2.3196110000069594, 48.84804199947933], ""type"": ""Point""}";48.84804199947933, 2.3196110000069594
1083;LA MARQUISE;111;RUE DE VAUGIRARD;0;;2.320783;48.845215;"{""coordinates"": [2.32078300044213, 48.84521499865269], ""type"": ""Point""}";48.84521499865269, 2.32078300044213
937;BIOCOOP LES POUSSES DE MENILMONTANT;20;RUE DE MENILMONTANT;0;;2.385024;48.867457;"{""coordinates"": [2.3850239993910853, 48.86745699875158], ""type"": ""Point""}";48.86745699875158, 2.3850239993910853
958;LA GRENOUILLE BLEUE;48;RUE BALARD;0;;2.277631;48.84159;"{""coordinates"": [2.2776310005420437, 48.84158999890018], ""type"": ""Point""}";48.84158999890018, 2.2776310005420437
959;LES ONDES;2;AVENUE DE VERSAILLES;0;;2.277942;48.851203;"{""coordinates"": [2.277941999845164, 48.85120299886151], ""type"": ""Point""}";48.85120299886151, 2.277941999845164
1347;LOUFOQUE;57;RUE GALANDE;0;;2.346909;48.851637;"{""coordinates"": [2.346909000237767, 48.851636999360274], ""type"": ""Point""}";48.851636999360274, 2.346909000237767
1348;LE CAFE CACAHUETE;1;RUE PIERRE SEMARD;0;;2.346922;48.877582;"{""coordinates"": [2.3469219998912005, 48.87758199909209], ""type"": ""Point""}";48.87758199909209, 2.3469219998912005
1436;BAGEL CORNER;66;AVENUE DES GOBELINS;0;;2.35418;48.83299;"{""coordinates"": [2.3541799995423296, 48.832989999413954], ""type"": ""Point""}";48.832989999413954, 2.3541799995423296
1409;MESSIEURS KIM;42;RUE DU CARDINAL LEMOINE;0;;2.351844;48.846895;"{""coordinates"": [2.3518440001042067, 48.84689499879922], ""type"": ""Point""}";48.84689499879922, 2.3518440001042067
1424;EXKI;38;RUE RAMBUTEAU;0;;2.353118;48.861394;"{""coordinates"": [2.3531179993540126, 48.86139399919104], ""type"": ""Point""}";48.86139399919104, 2.3531179993540126
1124;LE CHIEN ANDALOU;19;RUE LITTRE;0;;2.324319;48.844933;"{""coordinates"": [2.3243189993785935, 48.84493299861372], ""type"": ""Point""}";48.84493299861372, 2.3243189993785935
1141;KAI BOWL;11;RUE TRONCHET;0;;2.325415;48.871641;"{""coordinates"": [2.325415000540475, 48.87164099889293], ""type"": ""Point""}";48.87164099889293, 2.325415000540475
1235;GUENMAI;6;RUE CARDINALE;0;;2.33597;48.854123;"{""coordinates"": [2.3359700003978645, 48.85412299863773], ""type"": ""Point""}";48.85412299863773, 2.3359700003978645
1249;YUMIKO9;29;RUE CLAUZEL;0;;2.337204;48.879299;"{""coordinates"": [2.3372039995432545, 48.87929899894056], ""type"": ""Point""}";48.87929899894056, 2.3372039995432545
1289;LA VIE EN FRUITS;116;BOULEVARD SAINT-GERMAIN;0;;2.340976;48.852081;"{""coordinates"": [2.3409760003897877, 48.85208099885351], ""type"": ""Point""}";48.85208099885351, 2.3409760003897877
1291;LIBERTE;40;RUE SAINT-ANDRE DES ARTS;0;;2.34135;48.853427;"{""coordinates"": [2.3413500001679464, 48.853426999022325], ""type"": ""Point""}";48.853426999022325, 2.3413500001679464
1314;LE BREBANT;32;BOULEVARD POISSONNIERE;0;;2.343552;48.871604;"{""coordinates"": [2.343551999811667, 48.87160399906647], ""type"": ""Point""}";48.87160399906647, 2.343551999811667
1319;FRANPRIX AMIRAL MOUCHEZ;94;RUE DE L AMIRAL MOUCHEZ;0;;2.34385;48.820072;"{""coordinates"": [2.343849999444546, 48.8200719987264], ""type"": ""Point""}";48.8200719987264, 2.343849999444546
1327;CHEZ SUZETTE;12;RUE DE LA HARPE;0;;2.344546;48.852767;"{""coordinates"": [2.344546000655411, 48.85276699863337], ""type"": ""Point""}";48.85276699863337, 2.344546000655411
1331;PEPINS ET TROGNONS;111;BOULEVARD AUGUSTE BLANQUI;0;;2.344964;48.830388;"{""coordinates"": [2.3449639999384733, 48.83038799909521], ""type"": ""Point""}";48.83038799909521, 2.3449639999384733
1759;BENOIT CASTEL;150;RUE DE MENILMONTANT;0;;2.3978;48.870261;"{""coordinates"": [2.3978000005599505, 48.8702609990188], ""type"": ""Point""}";48.8702609990188, 2.3978000005599505
1767;LE TERMINUS;1;COURS DE VINCENNES;0;;2.399542;48.848452;"{""coordinates"": [2.399542000055948, 48.84845199887871], ""type"": ""Point""}";48.84845199887871, 2.399542000055948
1772;CASTORAMA;9;COURS DE VINCENNES;0;;2.400025;48.848409;"{""coordinates"": [2.400024999968012, 48.84840899921973], ""type"": ""Point""}";48.84840899921973, 2.400024999968012
1781;LA MARGHERITA;59;AVENUE DU GENERAL MICHEL BIZOT;0;;2.401909;48.835623;"{""coordinates"": [2.4019089993408165, 48.83562299916928], ""type"": ""Point""}";48.83562299916928, 2.4019089993408165
1790;BIOCOOP GAMBETTA;98;AVENUE GAMBETTA;0;;2.403771;48.870808;"{""coordinates"": [2.403771000476398, 48.87080799873852], ""type"": ""Point""}";48.87080799873852, 2.403771000476398
1800;MAA KRUPA;77;RUE DES PYRENEES;0;;2.405695;48.853581;"{""coordinates"": [2.405694999809758, 48.85358099913948], ""type"": ""Point""}";48.85358099913948, 2.405694999809758
1545;LEVANTINE;36;RUE BICHAT;0;;2.368148;48.871529;"{""coordinates"": [2.3681479995711614, 48.87152899930282], ""type"": ""Point""}";48.87152899930282, 2.3681479995711614
1577;LE VERRE VOLE;38;RUE OBERKAMPF;0;;2.37176;48.864398;"{""coordinates"": [2.37175999984877, 48.864397999353045], ""type"": ""Point""}";48.864397999353045, 2.37175999984877
1612;THE NAKED SHOP;75;RUE OBERKAMPF;0;;2.374028;48.865004;"{""coordinates"": [2.3740280001330274, 48.86500399887896], ""type"": ""Point""}";48.86500399887896, 2.3740280001330274
1618;OPTIQUE SAINT AMBROISE;7;RUE DE LA FOLIE-MERICOURT;0;;2.374299;48.861738;"{""coordinates"": [2.3742989994353416, 48.8617379988821], ""type"": ""Point""}";48.8617379988821, 2.3742989994353416
1632;LES SAISONNIERS;65;RUE JEAN-PIERRE TIMBAUD;0;;2.375572;48.867271;"{""coordinates"": [2.375571999439372, 48.86727099932843], ""type"": ""Point""}";48.86727099932843, 2.375571999439372
1634;LE PETIT LOCAL;51;RUE DU CHEMIN VERT;0;;2.375585;48.859413;"{""coordinates"": [2.3755850006648385, 48.85941299889323], ""type"": ""Point""}";48.85941299889323, 2.3755850006648385
1698;VIVONS L INSTANT;1;RUE DE DIJON;0;;2.385489;48.835495;"{""coordinates"": [2.3854889996625186, 48.83549499902535], ""type"": ""Point""}";48.83549499902535, 2.3854889996625186
1716;FENETRE SUR COUR;10;RUE GABRIEL LAME;0;;2.387742;48.833873;"{""coordinates"": [2.387741999757058, 48.83387299899365], ""type"": ""Point""}";48.83387299899365, 2.387741999757058
1736;LA VIE CLAIRE;305;RUE DES PYRENEES;0;;2.393665;48.870459;"{""coordinates"": [2.3936649996858335, 48.870458998967784], ""type"": ""Point""}";48.870458998967784, 2.3936649996858335
1747;LATHANOR;63;RUE PLANCHAT;0;;2.396048;48.856412;"{""coordinates"": [2.3960480002588183, 48.85641199916626], ""type"": ""Point""}";48.85641199916626, 2.3960480002588183
1951;METRO HAVRE-CAUMARTIN;64;BOULEVARD HAUSSMANN;0;;2.3283697;48.8736102;"{""coordinates"": [2.32836970061101, 48.87361019927768], ""type"": ""Point""}";48.87361019927768, 2.32836970061101
1974;METRO POISSONNIERE;96;RUE LA FAYETTE;0;;2.3493332;48.8773031;"{""coordinates"": [2.3493332006001086, 48.87730309877006], ""type"": ""Point""}";48.87730309877006, 2.3493332006001086
1812;APOGE AUSTERLITZ;61;AVENUE PIERRE MENDES-FRANCE;0;;2.36856;48.840166;"{""coordinates"": [2.3685600000271516, 48.840165998732786], ""type"": ""Point""}";48.840165998732786, 2.3685600000271516
1832;ECLIPSES;0;RUE DE BEAUNE;0;;2.329322;48.857875;"{""coordinates"": [2.3293220000982036, 48.85787499930349], ""type"": ""Point""}";48.85787499930349, 2.3293220000982036
1171;NEWVISION;2;RUE DE VINTIMILLE;0;;2.328415;48.881777;"{""coordinates"": [2.3284150000831256, 48.881776998855244], ""type"": ""Point""}";48.881776998855244, 2.3284150000831256
1918;HOTEL DE LA TAMISE - ESPRIT DE FRANCE;4;RUE D ALGER;0;;2.3295324;48.8648677;"{""coordinates"": [2.329532399700693, 48.86486769940321], ""type"": ""Point""}";48.86486769940321, 2.329532399700693
1930;MICHALAK;16;RUE DE LA VERRERIE;0;;2.3549349;48.8572762;"{""coordinates"": [2.354934900355015, 48.85727619888039], ""type"": ""Point""}";48.85727619888039, 2.354934900355015
917;MAISON DES GYROS;17;RUE DE LA HUCHETTE;0;;2.345745;48.852932;"{""coordinates"": [2.345744999565162, 48.852931999151885], ""type"": ""Point""}";48.852931999151885, 2.345744999565162
926;L ATELIER DE L ART;116;AVENUE PARMENTIER;0;;2.37306;48.867513;"{""coordinates"": [2.3730600002274373, 48.867512998707454], ""type"": ""Point""}";48.867512998707454, 2.3730600002274373
988;LE BOUDOIR AUX IDEES;26;AVENUE FELIX FAURE;0;;2.289718;48.841948;"{""coordinates"": [2.289717999522416, 48.84194799940125], ""type"": ""Point""}";48.84194799940125, 2.289717999522416
1001;KAMEME CONCEPT;18;RUE GRAMME;0;;2.296173;48.844911;"{""coordinates"": [2.2961730002800453, 48.84491099945355], ""type"": ""Point""}";48.84491099945355, 2.2961730002800453
1025;DAVOLI;34;RUE CLER;0;;2.306221;48.856939;"{""coordinates"": [2.3062210004482893, 48.85693899865509], ""type"": ""Point""}";48.85693899865509, 2.3062210004482893
1034;BISTRO BELHARA;23;RUE DUVIVIER;0;;2.307355;48.856401;"{""coordinates"": [2.307355000072843, 48.8564009992814], ""type"": ""Point""}";48.8564009992814, 2.307355000072843
1067;GIOVANNA LE CLAN DES MAMMA;57;RUE DES BATIGNOLLES;0;;2.319057;48.885985;"{""coordinates"": [2.3190570002084665, 48.885984998636744], ""type"": ""Point""}";48.885984998636744, 2.3190570002084665
944;KAMEL COIFFURE;16;PLACE DE LA NATION;0;;2.395454;48.847276;"{""coordinates"": [2.3954539996385322, 48.84727599921992], ""type"": ""Point""}";48.84727599921992, 2.3954539996385322
1346;LA GRILLE;50;RUE MONTORGUEIL;0;;2.346867;48.864722;"{""coordinates"": [2.34686699990888, 48.86472199895129], ""type"": ""Point""}";48.86472199895129, 2.34686699990888
1360;MARCHE PANTHEON;12;RUE DES CARMES;0;;2.347581;48.84935;"{""coordinates"": [2.3475809995528594, 48.849349998979235], ""type"": ""Point""}";48.849349998979235, 2.3475809995528594
1459;FIBRIS;40;BOULEVARD SAINT-MARCEL;0;;2.357377;48.838758;"{""coordinates"": [2.3573769997023923, 48.8387579992334], ""type"": ""Point""}";48.8387579992334, 2.3573769997023923
1467;PUERTO INCA;6;RUE DE JOUY;0;;2.358506;48.854779;"{""coordinates"": [2.3585059996503914, 48.854778999379164], ""type"": ""Point""}";48.854778999379164, 2.3585059996503914
1472;LIBRAIRIE SOLIDAIRE;27;RUE DU CHATEAU D EAU;0;;2.359276;48.870557;"{""coordinates"": [2.3592759996337738, 48.87055699897497], ""type"": ""Point""}";48.87055699897497, 2.3592759996337738
1394;LOUTSA TOREFACTEUR;1;RUE DE BAZEILLES;0;;2.350328;48.83926;"{""coordinates"": [2.350328000295581, 48.83925999874865], ""type"": ""Point""}";48.83925999874865, 2.350328000295581
1400;LE TEMPS DES CERISES SCOP;18;RUE DE LA BUTTE AUX CAILLES;0;;2.350863;48.827923;"{""coordinates"": [2.3508630003814015, 48.82792299879225], ""type"": ""Point""}";48.82792299879225, 2.3508630003814015
1427;PLEINE MER;22;RUE DE CHABROL;0;;2.353561;48.876866;"{""coordinates"": [2.3535609993834004, 48.87686599926194], ""type"": ""Point""}";48.87686599926194, 2.3535609993834004
1433;FRANCOIS PRALUS;35;RUE RAMBUTEAU;0;;2.353787;48.861036;"{""coordinates"": [2.353786999415754, 48.86103599948194], ""type"": ""Point""}";48.86103599948194, 2.353786999415754
1172;MALOA;57;RUE DE CLICHY;0;;2.328478;48.881055;"{""coordinates"": [2.328478000255526, 48.881054998790255], ""type"": ""Point""}";48.881054998790255, 2.328478000255526
1185;LE HOLLYWOOD;19;RUE DE CLICHY;0;;2.330088;48.878009;"{""coordinates"": [2.3300880004089612, 48.878008998680215], ""type"": ""Point""}";48.878008998680215, 2.3300880004089612
1200;LES GOURMANDISES DE SAINT LAZARE;71;RUE SAINT-LAZARE;0;;2.332669;48.876721;"{""coordinates"": [2.332668999834527, 48.87672099907535], ""type"": ""Point""}";48.87672099907535, 2.332668999834527
1226;PASTA & CO;75;RUE TAITBOUT;0;;2.335315;48.87645;"{""coordinates"": [2.3353150000253082, 48.87644999910785], ""type"": ""Point""}";48.87644999910785, 2.3353150000253082
1229;HOTEL PARTICULIER MONTMARTRE;23;AVENUE JUNOT;0;;2.33546;48.888295;"{""coordinates"": [2.335459999887988, 48.8882949991914], ""type"": ""Point""}";48.8882949991914, 2.335459999887988
1230;LE GUILLEMET;8;RUE DE DOUAI;0;;2.335576;48.881494;"{""coordinates"": [2.3355760001191745, 48.881493998850594], ""type"": ""Point""}";48.881493998850594, 2.3355760001191745
1247;BOULANGERIE LES 3 B;92;RUE LAMARCK;0;;2.337091;48.890236;"{""coordinates"": [2.33709099954628, 48.89023599910966], ""type"": ""Point""}";48.89023599910966, 2.33709099954628
1298;AUX BONS P TITS PLATS;20;GALERIE MONTMARTRE;0;;2.341981;48.870587;"{""coordinates"": [2.3419810003742394, 48.87058699937541], ""type"": ""Point""}";48.87058699937541, 2.3419810003742394
1318;LA RECYCLERIE;60;RUE BELLIARD;0;;2.343799;48.897492;"{""coordinates"": [2.3437990006575737, 48.897491999492345], ""type"": ""Point""}";48.897491999492345, 2.3437990006575737
1792;PRAMACIE CENTRALE DES PYRENEES;127;RUE DES PYRENEES;0;;2.403957;48.85735;"{""coordinates"": [2.4039570006330337, 48.857349999279165], ""type"": ""Point""}";48.857349999279165, 2.4039570006330337
1795;PREMIERE OPTIQUE;5;RUE DU RENDEZ-VOUS;0;;2.404497;48.845121;"{""coordinates"": [2.4044969995628103, 48.84512099865566], ""type"": ""Point""}";48.84512099865566, 2.4044969995628103
1508;LULU LA NANTAISE;67;RUE DE LANCRY;0;;2.363516;48.872833;"{""coordinates"": [2.363516000430545, 48.872832999512624], ""type"": ""Point""}";48.872832999512624, 2.363516000430545
1549;CAFE CACHE;104;RUE D AUBERVILLIERS;0;;2.368527;48.890284;"{""coordinates"": [2.368526999692328, 48.89028399877878], ""type"": ""Point""}";48.89028399877878, 2.368526999692328
1558;HOTEL PARIS BASTILLE;67;RUE DE LYON;0;;2.369968;48.850933;"{""coordinates"": [2.3699679996392926, 48.850932999267705], ""type"": ""Point""}";48.850932999267705, 2.3699679996392926
1593;LE PARADIS DES VELOS;128;AVENUE PARMENTIER;0;;2.37248;48.868298;"{""coordinates"": [2.3724800006498294, 48.868297998794034], ""type"": ""Point""}";48.868297998794034, 2.3724800006498294
1617;NICOLAS;77;RUE OBERKAMPF;0;;2.374252;48.865044;"{""coordinates"": [2.37425200015073, 48.8650439993573], ""type"": ""Point""}";48.8650439993573, 2.37425200015073
1646;CAFE FUSAIN;50;AVENUE PARMENTIER;0;;2.377;48.862185;"{""coordinates"": [2.3769999994836475, 48.86218499869672], ""type"": ""Point""}";48.86218499869672, 2.3769999994836475
1661;LE QUATRE-VINGTS TREIZE;93;RUE JEAN-PIERRE TIMBAUD;0;;2.379271;48.868345;"{""coordinates"": [2.379271000121975, 48.86834499934511], ""type"": ""Point""}";48.86834499934511, 2.379271000121975
1705;A LIVR OUVERT;171;BOULEVARD VOLTAIRE;0;;2.385946;48.854521;"{""coordinates"": [2.3859460006332185, 48.85452099931553], ""type"": ""Point""}";48.85452099931553, 2.3859460006332185
1724;LA VINGTIEME CHAISE;38;RUE DES AMANDIERS;0;;2.389828;48.864891;"{""coordinates"": [2.3898279995493805, 48.86489099943418], ""type"": ""Point""}";48.86489099943418, 2.3898279995493805
1726;CONSCIENCE;371;RUE DES PYRENEES;0;;2.390079;48.873184;"{""coordinates"": [2.3900790005920083, 48.87318399916153], ""type"": ""Point""}";48.87318399916153, 2.3900790005920083
1741;EGLANTINE;21;RUE FABRE D EGLANTINE;0;;2.395485;48.847045;"{""coordinates"": [2.39548499984857, 48.84704499917081], ""type"": ""Point""}";48.84704499917081, 2.39548499984857
1748;ALEXIS 20;21;RUE DE BAGNOLET;0;;2.396063;48.856827;"{""coordinates"": [2.3960630000194434, 48.85682699949066], ""type"": ""Point""}";48.85682699949066, 2.3960630000194434
1890;TIERS TEMPS PARIS;0;RUE REMY DUMONCEL;0;;2.331463;48.829758;"{""coordinates"": [2.331463000094873, 48.82975799909601], ""type"": ""Point""}";48.82975799909601, 2.331463000094873
1901;UN INSTANT DE REVE;0;ROUTE DE LA CEINTURE DU LAC DAUMESNIL;0;;2.419077;48.829427;"{""coordinates"": [2.4190770006254128, 48.829426999456636], ""type"": ""Point""}";48.829426999456636, 2.4190770006254128
1823;CAFEZOIDE;0;QUAI DE LA LOIRE;0;;2.379262;48.887424;"{""coordinates"": [2.379262000639045, 48.887423999078], ""type"": ""Point""}";48.887423999078, 2.379262000639045
1833;LE BELUSHI S;159;RUE DE CRIMEE;0;;2.378947;48.88864;"{""coordinates"": [2.3789469999391053, 48.88863999877799], ""type"": ""Point""}";48.88863999877799, 2.3789469999391053
1834;LA SOLITA TAVERNA;10;RUE DU FOUARRE;0;;2.347261;48.851587;"{""coordinates"": [2.347261000565574, 48.85158699948224], ""type"": ""Point""}";48.85158699948224, 2.347261000565574
1281;MAIRIE DU 9E ARRONDISSEMENT;6;RUE DROUOT;0;;2.340481;48.872592;"{""coordinates"": [2.340481000676003, 48.872591999366875], ""type"": ""Point""}";48.872591999366875, 2.340481000676003
1911;HOTEL BRIGHTON - ESPRIT DE FRANCE;218;RUE DE RIVOLI;0;;2.3290435;48.8648321;"{""coordinates"": [2.3290434993354507, 48.86483209920763], ""type"": ""Point""}";48.86483209920763, 2.3290434993354507
1919;HOTEL ROYAL GARDEN;218;RUE DU FAUBOURG SAINT-HONORE;0;;2.3039016;48.8757133;"{""coordinates"": [2.303901600423062, 48.87571329881215], ""type"": ""Point""}";48.87571329881215, 2.303901600423062
1925;PALAIS DE TOKYO;13;AVENUE DU PRESIDENT WILSON;0;;2.29647;48.8646309;"{""coordinates"": [2.2964699993789894, 48.864630898772766], ""type"": ""Point""}";48.864630898772766, 2.2964699993789894
902;VERTICAL ART PIGALLE;6;BOULEVARD DE CLICHY;0;;2.339014;48.882343;"{""coordinates"": [2.339014000341184, 48.8823429994408], ""type"": ""Point""}";48.8823429994408, 2.339014000341184
905;LA MERINGALE;35;RUE DES MARTYRS;0;;2.339765;48.879059;"{""coordinates"": [2.339765000074818, 48.87905899935699], ""type"": ""Point""}";48.87905899935699, 2.339765000074818
911;LA PAPETHEQUE PARIS;26;RUE SOUFFLOT;0;;2.341355;48.847384;"{""coordinates"": [2.341355000642023, 48.847383999093196], ""type"": ""Point""}";48.847383999093196, 2.341355000642023
1371;MARIETTE;63;RUE DU FAUBOURG POISSONNIERE;0;;2.348058;48.875351;"{""coordinates"": [2.348058000655169, 48.87535099888493], ""type"": ""Point""}";48.87535099888493, 2.348058000655169
1462;SAS DOUBLE V;19;RUE REAUMUR;0;;2.357573;48.865036;"{""coordinates"": [2.3575730002715765, 48.865035998672], ""type"": ""Point""}";48.865035998672, 2.3575730002715765
1471;YUMI;27;RUE DU CHATEAU D EAU;0;;2.359276;48.870557;"{""coordinates"": [2.3592759996337738, 48.87055699897497], ""type"": ""Point""}";48.87055699897497, 2.3592759996337738
1474;LA BIBIMERIE;1;RUE LUCIEN SAMPAIX;0;;2.359597;48.870769;"{""coordinates"": [2.359596999998287, 48.87076899940402], ""type"": ""Point""}";48.87076899940402, 2.359596999998287
1479;SO.BIO PARIS JEANNE D ARC;135;RUE JEANNE D ARC;0;;2.360306;48.835672;"{""coordinates"": [2.3603060003635075, 48.83567199921458], ""type"": ""Point""}";48.83567199921458, 2.3603060003635075
1415;LUCKY LUCIANO;182;RUE SAINT-MARTIN;0;;2.352297;48.862671;"{""coordinates"": [2.352296999863101, 48.86267099906714], ""type"": ""Point""}";48.86267099906714, 2.352296999863101
1121;THE CRYING TIGER;72;RUE DU CHERCHE-MIDI;0;;2.324015;48.848309;"{""coordinates"": [2.3240150003634867, 48.84830899866597], ""type"": ""Point""}";48.84830899866597, 2.3240150003634867
1157;LA MAISON DU MOCHI;39;RUE DU CHERCHE-MIDI;0;;2.326351;48.849411;"{""coordinates"": [2.326350999679651, 48.84941099887867], ""type"": ""Point""}";48.84941099887867, 2.326350999679651
1165;L ATELIER;95;BOULEVARD DU MONTPARNASSE;0;;2.328041;48.842722;"{""coordinates"": [2.3280409999392697, 48.84272199949396], ""type"": ""Point""}";48.84272199949396, 2.3280409999392697
1189;SUBWAY;15;RUE VAVIN;0;;2.330945;48.844079;"{""coordinates"": [2.330944999902217, 48.84407899923624], ""type"": ""Point""}";48.84407899923624, 2.330944999902217
1210;PINZUTI;212;RUE MARCADET;0;;2.333798;48.891867;"{""coordinates"": [2.333798000333068, 48.891866998835766], ""type"": ""Point""}";48.891866998835766, 2.333798000333068
1214;LA BOUSSOLE;12;RUE GUISARDE;0;;2.334181;48.851896;"{""coordinates"": [2.334180999441488, 48.85189599948824], ""type"": ""Point""}";48.85189599948824, 2.334180999441488
1221;MADAMADOR;9;RUE GUISARDE;0;;2.33474;48.851852;"{""coordinates"": [2.334740000151223, 48.85185199875676], ""type"": ""Point""}";48.85185199875676, 2.334740000151223
1222;ETHIX;37;RUE CATHERINE DE LA ROCHEFOUCAULD;0;;2.334881;48.879658;"{""coordinates"": [2.3348810005822607, 48.87965799906305], ""type"": ""Point""}";48.87965799906305, 2.3348810005822607
1227;LA PALETTE DES VINS;185;RUE ORDENER;0;;2.335331;48.893672;"{""coordinates"": [2.3353310001409358, 48.893671998753504], ""type"": ""Point""}";48.893671998753504, 2.3353310001409358
1257;BRASSERIE LA TERRASSE;145;BOULEVARD SAINT-MICHEL;0;;2.337613;48.841054;"{""coordinates"": [2.3376129996110935, 48.841053999504304], ""type"": ""Point""}";48.841053999504304, 2.3376129996110935
1271;AU COMPTOIR DES FLEURS;14;RUE VIVIENNE;0;;2.339523;48.867741;"{""coordinates"": [2.339523000102394, 48.867740999430104], ""type"": ""Point""}";48.867740999430104, 2.339523000102394
1300;MARDI;137;RUE MONTMARTRE;0;;2.342666;48.869897;"{""coordinates"": [2.3426659993721803, 48.86989699893209], ""type"": ""Point""}";48.86989699893209, 2.3426659993721803
1758;SAB S WASH & LAUNDRY;111;BOULEVARD SERURIER;0;;2.397516;48.880625;"{""coordinates"": [2.3975160005585447, 48.88062499890657], ""type"": ""Point""}";48.88062499890657, 2.3975160005585447
1786;LE QUINZE;15;RUE DU SURMELIN;0;;2.403181;48.868093;"{""coordinates"": [2.403181000077115, 48.86809299867717], ""type"": ""Point""}";48.86809299867717, 2.403181000077115
1483;BEYOND PARIS;13;RUE CHARLOT;0;;2.360911;48.861525;"{""coordinates"": [2.360911000642746, 48.86152499941714], ""type"": ""Point""}";48.86152499941714, 2.360911000642746
1505;VIVRES EN VRAC;94;RUE JEANNE D ARC;0;;2.363384;48.833703;"{""coordinates"": [2.363384000498796, 48.833702999158454], ""type"": ""Point""}";48.833702999158454, 2.363384000498796
1510;SIGNORINI TARTUFI;3;RUE DE BRETAGNE;0;;2.363961;48.862044;"{""coordinates"": [2.363961000403195, 48.862043998870895], ""type"": ""Point""}";48.862043998870895, 2.363961000403195
1555;MA PHARMACIE REPUBLIQUE;44;RUE DU FAUBOURG DU TEMPLE;0;;2.369153;48.869323;"{""coordinates"": [2.3691529995424676, 48.86932299890678], ""type"": ""Point""}";48.86932299890678, 2.3691529995424676
1578;RESTAURANT BMK;40;RUE JEAN-PIERRE TIMBAUD;0;;2.371771;48.866153;"{""coordinates"": [2.3717710003884696, 48.86615299864412], ""type"": ""Point""}";48.86615299864412, 2.3717710003884696
1666;AU CŒUR DE BELLEVILLE;32;RUE DE BELLEVILLE;0;;2.379735;48.872741;"{""coordinates"": [2.379734999843769, 48.872740999507165], ""type"": ""Point""}";48.872740999507165, 2.379734999843769
1675;NOVOTEL PARIS BELLEVILLE MOZAMI;64;BOULEVARD DE BELLEVILLE;0;;2.380678;48.869431;"{""coordinates"": [2.3806779996282263, 48.869430998722095], ""type"": ""Point""}";48.869430998722095, 2.3806779996282263
1679;MONSIEUR APPERT;143;RUE OBERKAMPF;0;;2.381076;48.866649;"{""coordinates"": [2.381076000241376, 48.86664899900063], ""type"": ""Point""}";48.86664899900063, 2.381076000241376
1730;HOTEL ADAGIO PARIS PHILIPPE AUGUSTE;12;RUE PIERRE BAYLE;0;;2.390976;48.858835;"{""coordinates"": [2.3909759999042723, 48.85883499894515], ""type"": ""Point""}";48.85883499894515, 2.3909759999042723
1946;METRO CHAMPS-ELYSEES-CLEMENCEAU;1;AVENUE DU GENERAL EISENHOWER;0;;2.3133051;48.8672364;"{""coordinates"": [2.313305099845035, 48.86723639901736], ""type"": ""Point""}";48.86723639901736, 2.313305099845035
1956;METRO BASTILLE;146;RUE DE LYON;0;;2.3697466;48.8520419;"{""coordinates"": [2.369746600136398, 48.85204189920123], ""type"": ""Point""}";48.85204189920123, 2.369746600136398
1986;METRO BIBLIOTHEQUE FRANCOIS MITERRAND;60;RUE DU CHEVALERET;0;;2.3759733;48.82975;"{""coordinates"": [2.375973300103669, 48.82974999906403], ""type"": ""Point""}";48.82974999906403, 2.375973300103669
1835;ATELIER JOZON;30;RUE DE L ABBE GROULT;0;;2.294569;48.841753;"{""coordinates"": [2.2945689994693597, 48.841752999460994], ""type"": ""Point""}";48.841752999460994, 2.2945689994693597
1846;THAI AT HOME;22;RUE DES BOURDONNAIS;0;;2.344547;48.859312;"{""coordinates"": [2.3445470006298605, 48.859311999397164], ""type"": ""Point""}";48.859311999397164, 2.3445470006298605
1514;LA PETITE MAISON DANS PARIS;14;RUE EUGENE VARLIN;0;;2.364135;48.87871;"{""coordinates"": [2.3641349994271144, 48.878709999283565], ""type"": ""Point""}";48.878709999283565, 2.3641349994271144
1113;PHARMACIE ROME BATIGNOLLES;34;BOULEVARD DES BATIGNOLLES;0;;2.323776;48.882989;"{""coordinates"": [2.323775999762709, 48.882988998889715], ""type"": ""Point""}";48.882988998889715, 2.323775999762709
1993;LE PARISIEN SAINT-MARTIN;337;RUE SAINT-MARTIN;0;;2.3548659;48.8680245;"{""coordinates"": [2.354865900496105, 48.86802449926829], ""type"": ""Point""}";48.86802449926829, 2.354865900496105
890;API POKE BOWL;21;BOULEVARD DU MONTPARNASSE;0;;2.31954;48.845559;"{""coordinates"": [2.3195400002675397, 48.84555899891515], ""type"": ""Point""}";48.84555899891515, 2.3195400002675397
914;REGENT;68;RUE LA FAYETTE;0;;2.344028;48.875796;"{""coordinates"": [2.344028000171249, 48.875795999508306], ""type"": ""Point""}";48.875795999508306, 2.344028000171249
1050;NOVOTEL PARIS CENTRE GARE MONTPARNASSE;17;RUE DU COTENTIN;0;;2.315052;48.838579;"{""coordinates"": [2.3150519998939707, 48.8385789987387], ""type"": ""Point""}";48.8385789987387, 2.3150519998939707
1058;VAPOSTORE;1;BOULEVARD DU MONTPARNASSE;0;;2.31726;48.846712;"{""coordinates"": [2.3172599994241487, 48.84671199893228], ""type"": ""Point""}";48.84671199893228, 2.3172599994241487
1069;GROUPE LATIAN;68;RUE DE SEVRES;0;;2.319158;48.847861;"{""coordinates"": [2.319157999497689, 48.84786099904792], ""type"": ""Point""}";48.84786099904792, 2.319157999497689
930;BENOIT CASTEL;72;RUE JEAN-PIERRE TIMBAUD;0;;2.375326;48.867076;"{""coordinates"": [2.3753259996437, 48.8670759986219], ""type"": ""Point""}";48.8670759986219, 2.3753259996437
931;MAISON DES METALLOS;94;RUE JEAN-PIERRE TIMBAUD;0;;2.377852;48.867731;"{""coordinates"": [2.3778519998323677, 48.867730999419244], ""type"": ""Point""}";48.867730999419244, 2.3778519998323677
1439;L ENTRACTE;75;AVENUE DES GOBELINS;0;;2.354577;48.833327;"{""coordinates"": [2.3545769997424792, 48.83332699937923], ""type"": ""Point""}";48.83332699937923, 2.3545769997424792
1451;MON EPICERIE PARIS;31;RUE DES GRAVILLIERS;0;;2.356022;48.86399;"{""coordinates"": [2.3560219994031537, 48.86398999873107], ""type"": ""Point""}";48.86398999873107, 2.3560219994031537
1390;AU PETIT MARGUERY;9;BOULEVARD DE PORT-ROYAL;0;;2.349841;48.836795;"{""coordinates"": [2.3498409999100685, 48.83679499916228], ""type"": ""Point""}";48.83679499916228, 2.3498409999100685
1397;SHAWARMA LOVERS;79;RUE SAINT-MARTIN;0;;2.350488;48.859534;"{""coordinates"": [2.350487999492377, 48.85953399929725], ""type"": ""Point""}";48.85953399929725, 2.350487999492377
1112;RUE RANGOLI;74;RUE DU CHERCHE-MIDI;0;;2.323776;48.84818;"{""coordinates"": [2.3237760005073755, 48.848179999105064], ""type"": ""Point""}";48.848179999105064, 2.3237760005073755
1129;PHARMACIE DAUNY;40;RUE DU DOCTEUR HEULIN;0;;2.324643;48.891057;"{""coordinates"": [2.32464300000777, 48.891056998806285], ""type"": ""Point""}";48.891056998806285, 2.32464300000777
1133;KAZEKO;81;RUE DAGUERRE;0;;2.324789;48.83567;"{""coordinates"": [2.3247889994864765, 48.83566999892275], ""type"": ""Point""}";48.83566999892275, 2.3247889994864765
1163;GREEN LABEL CBD SHOP;18;RUE BREZIN;0;;2.327915;48.831259;"{""coordinates"": [2.3279150003808597, 48.83125899896071], ""type"": ""Point""}";48.83125899896071, 2.3279150003808597
1197;YUMI BAR;3;RUE JOUBERT;0;;2.332262;48.874552;"{""coordinates"": [2.332262000600799, 48.8745519986539], ""type"": ""Point""}";48.8745519986539, 2.332262000600799
1204;CAFE NATA - RUE DE PROVENCE;69;RUE DE PROVENCE;0;;2.333025;48.874249;"{""coordinates"": [2.3330249993894583, 48.87424899877493], ""type"": ""Point""}";48.87424899877493, 2.3330249993894583
1217;SAMANTHA FLEURS;16;RUE PIERRE FONTAINE;0;;2.334485;48.881328;"{""coordinates"": [2.3344849993399825, 48.8813279990857], ""type"": ""Point""}";48.8813279990857, 2.3344849993399825
1233;ADDIS ABEBA;56;RUE NOTRE-DAME DE LORETTE;0;;2.335881;48.879894;"{""coordinates"": [2.3358809994100125, 48.879893998639936], ""type"": ""Point""}";48.879893998639936, 2.3358809994100125
1274;LA VALETTE;25;RUE DAUPHINE;0;;2.339721;48.855071;"{""coordinates"": [2.3397209995919233, 48.8550709989479], ""type"": ""Point""}";48.8550709989479, 2.3397209995919233
1275;LE ZINGAM;74;RUE DES MARTYRS;0;;2.339749;48.88255;"{""coordinates"": [2.339748999893316, 48.88254999906922], ""type"": ""Point""}";48.88254999906922, 2.339748999893316
1315;LE LUTECE;8;BOULEVARD SAINT-MICHEL;0;;2.343555;48.852688;"{""coordinates"": [2.343554999907379, 48.8526879994994], ""type"": ""Point""}";48.8526879994994, 2.343554999907379
1323;IL TIMO;77;RUE SAINT-HONORE;0;;2.34406;48.861129;"{""coordinates"": [2.3440600003663863, 48.86112899910419], ""type"": ""Point""}";48.86112899910419, 2.3440600003663863
1326;UNION SQUARE;17;RUE SAINT-SEVERIN;0;;2.34449;48.852514;"{""coordinates"": [2.3444899996740243, 48.85251399914715], ""type"": ""Point""}";48.85251399914715, 2.3444899996740243
1342;CLOUD CAKES;6;RUE MANDAR;0;;2.346368;48.865647;"{""coordinates"": [2.346368000292907, 48.865646999211805], ""type"": ""Point""}";48.865646999211805, 2.346368000292907
1762;MELI MELLOW;55;RUE DE BAGNOLET;0;;2.398213;48.857186;"{""coordinates"": [2.398213000180544, 48.85718599889191], ""type"": ""Point""}";48.85718599889191, 2.398213000180544
1765;MOM S RESTAURANT;3;RUE PLANCHAT;0;;2.399306;48.851783;"{""coordinates"": [2.3993059996162494, 48.85178299944626], ""type"": ""Point""}";48.85178299944626, 2.3993059996162494
1779;LES ATELIERS DE NATEMA;39;RUE DES ORTEAUX;0;;2.401769;48.856679;"{""coordinates"": [2.4017689994390605, 48.85667899933294], ""type"": ""Point""}";48.85667899933294, 2.4017689994390605
1491;ATELIER EUGENIE SEIGNEUR;16;RUE CHARLOT;0;;2.3615;48.861875;"{""coordinates"": [2.3615000002274154, 48.861874998712906], ""type"": ""Point""}";48.861874998712906, 2.3615000002274154
1494;FABULA;16;RUE DES FRANCS BOURGEOIS;0;;2.362036;48.85721;"{""coordinates"": [2.3620359996111406, 48.85720999896421], ""type"": ""Point""}";48.85720999896421, 2.3620359996111406
1530;LE CAMBODGE;10;AVENUE RICHERAND;0;;2.366165;48.87213;"{""coordinates"": [2.366165000075677, 48.872129999024786], ""type"": ""Point""}";48.872129999024786, 2.366165000075677
1550;GRAND CENTRAL;104;RUE D AUBERVILLIERS;0;;2.368527;48.890284;"{""coordinates"": [2.368526999692328, 48.89028399877878], ""type"": ""Point""}";48.89028399877878, 2.368526999692328
1553;XURI;12;RUE BICHAT;0;;2.369021;48.87013;"{""coordinates"": [2.3690209995787486, 48.87012999944027], ""type"": ""Point""}";48.87012999944027, 2.3690209995787486
1574;EPICERIE LE VERRE VOLE;54;RUE DE LA FOLIE-MERICOURT;0;;2.371705;48.864266;"{""coordinates"": [2.3717050000258686, 48.86426599913456], ""type"": ""Point""}";48.86426599913456, 2.3717050000258686
1582;PAPETERIE SAINT SABIN;16;RUE SAINT-SABIN;0;;2.37196;48.855473;"{""coordinates"": [2.3719599995772005, 48.85547299941979], ""type"": ""Point""}";48.85547299941979, 2.3719599995772005
1611;LES DUNES;90;RUE DU FAUBOURG DU TEMPLE;0;;2.373973;48.870906;"{""coordinates"": [2.373972999349446, 48.87090599925856], ""type"": ""Point""}";48.87090599925856, 2.373972999349446
1622;NOSSO;22;PROMENADE CLAUDE LEVI-STRAUSS;0;;2.374425;48.831685;"{""coordinates"": [2.3744250000461014, 48.83168499931874], ""type"": ""Point""}";48.83168499931874, 2.3744250000461014
1624;PATISSERIE EMMA DUVERE;41;RUE SEDAINE;0;;2.374546;48.856964;"{""coordinates"": [2.374546000513153, 48.856963999101566], ""type"": ""Point""}";48.856963999101566, 2.374546000513153
1704;LA MAISON DU ZERO DECHET;1;PASSAGE EMMA CALVE;0;;2.385842;48.848304;"{""coordinates"": [2.385842000422536, 48.84830399944836], ""type"": ""Point""}";48.84830399944836, 2.385842000422536
1713;URBAN BAKERY;112;RUE DE BELLEVILLE;0;;2.38742;48.874603;"{""coordinates"": [2.3874199999589387, 48.87460299892976], ""type"": ""Point""}";48.87460299892976, 2.3874199999589387
1869;LIBRAIRIE SOLIDAIRE;27;RUE DU CHATEAU D EAU;0;;2.359276;48.870557;"{""coordinates"": [2.3592759996337738, 48.87055699897497], ""type"": ""Point""}";48.87055699897497, 2.3592759996337738
1874;FRANPRIX;116;RUE DE LA TOUR;0;;2.276014;48.862971;"{""coordinates"": [2.2760139995134314, 48.86297099944266], ""type"": ""Point""}";48.86297099944266, 2.2760139995134314
1875;FRANPRIX;4;AVENUE FRANKLIN ROOSEVELT;0;;2.310239;48.870069;"{""coordinates"": [2.3102389998768946, 48.87006899898765], ""type"": ""Point""}";48.87006899898765, 2.3102389998768946
1877;PARIS TODAY;2;QUAI DE GESVRES;0;;2.350395;48.856303;"{""coordinates"": [2.3503950001671607, 48.85630299865768], ""type"": ""Point""}";48.85630299865768, 2.3503950001671607
1934;ESCOCAFE;8;RUE D ORMESSON;0;;2.3623329;48.855389;"{""coordinates"": [2.3623329006247293, 48.85538899917691], ""type"": ""Point""}";48.85538899917691, 2.3623329006247293
1945;IBIS STYLES PARIS TOLBIAC BIBLIOTHEQUE DE FRANCE;21;RUE DE TOLBIAC;0;;2.3741563;48.8289228;"{""coordinates"": [2.3741563002434503, 48.828922799123845], ""type"": ""Point""}";48.828922799123845, 2.3741563002434503
1961;METRO MIROMESNIL;45;RUE DE LA BOETIE;0;;2.3144427;48.8736003;"{""coordinates"": [2.3144426997940695, 48.87360029929648], ""type"": ""Point""}";48.87360029929648, 2.3144426997940695
1983;METRO PIGALLE;22;BOULEVARD DE CLICHY;0;;2.3374557;48.8824251;"{""coordinates"": [2.337455700331997, 48.88242509891068], ""type"": ""Point""}";48.88242509891068, 2.337455700331997
1842;BRINDILLE;12;RUE VITRUVE;0;;2.402155;48.856422;"{""coordinates"": [2.4021550001637073, 48.85642199933738], ""type"": ""Point""}";48.85642199933738, 2.4021550001637073
957;LE PTIT CHENE;7;RUE GROS;0;;2.27736;48.851271;"{""coordinates"": [2.27736000062664, 48.85127099891308], ""type"": ""Point""}";48.85127099891308, 2.27736000062664
1117;ROSE & PERLE;27;RUE DE VARENNE;0;;2.32399;48.853904;"{""coordinates"": [2.3239899997479885, 48.853903999260595], ""type"": ""Point""}";48.853903999260595, 2.3239899997479885
1989;IBIS STYLES PARIS NATION COURS DE VINCENNES;96;COURS DE VINCENNES;0;;2.4080257;48.8469381;"{""coordinates"": [2.408025699761285, 48.846938099448764], ""type"": ""Point""}";48.846938099448764, 2.408025699761285
918;PURE BY NESS;80;RUE LA FAYETTE;0;;2.346088;48.876335;"{""coordinates"": [2.3460879993379757, 48.87633499862166], ""type"": ""Point""}";48.87633499862166, 2.3460879993379757
1000;COIN CUISINE;110;RUE DU THEATRE;0;;2.29472;48.846291;"{""coordinates"": [2.2947199998652765, 48.84629099906993], ""type"": ""Point""}";48.84629099906993, 2.2947199998652765
1005;MUSEE D ART MODERNE DE PARIS;11;AVENUE DU PRESIDENT WILSON;0;;2.297555;48.864765;"{""coordinates"": [2.2975550002623986, 48.86476499939044], ""type"": ""Point""}";48.86476499939044, 2.2975550002623986
1018;CAVE NICOLAS VAUGIRARD NECKER;222;RUE DE VAUGIRARD;0;;2.305513;48.840881;"{""coordinates"": [2.3055130005921267, 48.84088099929276], ""type"": ""Point""}";48.84088099929276, 2.3055130005921267
1032;RESSOURCERIE LA FABRIQUE 230;77;RUE CASTAGNARY;0;;2.307108;48.831515;"{""coordinates"": [2.307108000664683, 48.831514998924185], ""type"": ""Point""}";48.831514998924185, 2.307108000664683
1049;CHEZ FRANCOISE;2;RUE ROBERT ESNAULT-PELTERIE;0;;2.314878;48.862377;"{""coordinates"": [2.314878000201964, 48.86237699900766], ""type"": ""Point""}";48.86237699900766, 2.314878000201964
1065;UFC QUE CHOISIR PARIS OUEST;54;RUE DE L OUEST;0;;2.318673;48.835854;"{""coordinates"": [2.318673000503439, 48.83585399866896], ""type"": ""Point""}";48.83585399866896, 2.318673000503439
1098;MAIRIE DU 17EME ARRONDISSEMENT DE PARIS;18;RUE DES BATIGNOLLES;0;;2.322094;48.884341;"{""coordinates"": [2.3220940000652037, 48.884340999145046], ""type"": ""Point""}";48.884340999145046, 2.3220940000652037
1099;PHARMAIE CENTRALE D ALESIA;110;RUE D ALESIA;0;;2.322395;48.829507;"{""coordinates"": [2.322394999648114, 48.829506998789675], ""type"": ""Point""}";48.829506998789675, 2.322394999648114
972;LE MERIDIEN ETOILE;81;BOULEVARD GOUVION-SAINT-CYR;0;;2.284958;48.879473;"{""coordinates"": [2.2849579995011675, 48.879472998848684], ""type"": ""Point""}";48.879472998848684, 2.2849579995011675
1359;ESPACE L AUTRE LIVRE;13;RUE DE L ECOLE POLYTECHNIQUE;0;;2.347551;48.84777;"{""coordinates"": [2.347550999387755, 48.84776999865294], ""type"": ""Point""}";48.84776999865294, 2.347550999387755
1444;SOURCES VIVES MONASTICA;10;RUE DES BARRES;0;;2.355303;48.85517;"{""coordinates"": [2.3553030002898696, 48.855169999118964], ""type"": ""Point""}";48.855169999118964, 2.3553030002898696
1473;UNBOTTLED;60;RUE VIEILLE DU TEMPLE;0;;2.359317;48.858933;"{""coordinates"": [2.3593170001309667, 48.85893299890485], ""type"": ""Point""}";48.85893299890485, 2.3593170001309667
1414;TABLE DES BERNARDINS;20;RUE DE POISSY;0;;2.352281;48.848859;"{""coordinates"": [2.352281000313102, 48.848858998870504], ""type"": ""Point""}";48.848858998870504, 2.352281000313102
1904;LA SOUFFLERIE;7;RUE DE L ODEON;0;;2.3387806;48.8511745;"{""coordinates"": [2.3387806005395055, 48.85117449916685], ""type"": ""Point""}";48.85117449916685, 2.3387806005395055
1122;AMOUR;17;BOULEVARD EDGAR QUINET;0;;2.324073;48.841183;"{""coordinates"": [2.3240729998884544, 48.84118299894869], ""type"": ""Point""}";48.84118299894869, 2.3240729998884544
1152;ARTISAN DE FRANCE ET D AILLEURS;35;RUE BREZIN;0;;2.325918;48.831635;"{""coordinates"": [2.3259180003457827, 48.831634999282635], ""type"": ""Point""}";48.831634999282635, 2.3259180003457827
1156;LES PIPELETTES;31;RUE BREZIN;0;;2.326241;48.831551;"{""coordinates"": [2.3262410001413554, 48.8315509992456], ""type"": ""Point""}";48.8315509992456, 2.3262410001413554
1176;BISTROT DES AMIS;6;RUE DU CHERCHE-MIDI;0;;2.329079;48.851349;"{""coordinates"": [2.3290789996078196, 48.851348999342555], ""type"": ""Point""}";48.851348999342555, 2.3290789996078196
1199;LE RALLYE;81;RUE DE LA TOMBE ISSOIRE;0;;2.332513;48.827491;"{""coordinates"": [2.3325130006586825, 48.827490998801494], ""type"": ""Point""}";48.827490998801494, 2.3325130006586825
1207;L ANNEXE;15;RUE CHAPTAL;0;;2.333383;48.880744;"{""coordinates"": [2.3333829998750644, 48.880743998969315], ""type"": ""Point""}";48.880743998969315, 2.3333829998750644
1211;PETIT PAYS;46;RUE DAMREMONT;0;;2.334028;48.889903;"{""coordinates"": [2.3340280000669478, 48.889902998672795], ""type"": ""Point""}";48.889902998672795, 2.3340280000669478
1212;LE BAB OPERA;25;RUE LOUIS LE GRAND;0;;2.334042;48.870548;"{""coordinates"": [2.334042000109935, 48.870547998634024], ""type"": ""Point""}";48.870547998634024, 2.334042000109935
1244;OYAT;1;RUE HENRY MONNIER;0;;2.336869;48.879249;"{""coordinates"": [2.336868999831007, 48.87924899882718], ""type"": ""Point""}";48.87924899882718, 2.336868999831007
1265;FIAP;30;RUE CABANIS;0;;2.338153;48.830403;"{""coordinates"": [2.3381529999519266, 48.83040299899711], ""type"": ""Point""}";48.83040299899711, 2.3381529999519266
1277;LA TABLE DES ANGES;66;RUE DES MARTYRS;0;;2.340178;48.881076;"{""coordinates"": [2.340178000440618, 48.8810759994908], ""type"": ""Point""}";48.8810759994908, 2.340178000440618
1288;DILLETANTES, LA MAISON DU CHAMPAGNE;22;RUE DE SAVOIE;0;;2.340911;48.854416;"{""coordinates"": [2.3409110002418174, 48.85441599940396], ""type"": ""Point""}";48.85441599940396, 2.3409110002418174
1296;DAVID IMMOBILIER;7;PLACE CHARLES DULLIN;0;;2.34167;48.883304;"{""coordinates"": [2.3416700004092235, 48.88330399938711], ""type"": ""Point""}";48.88330399938711, 2.3416700004092235
1303;BUFFET MIMOSA;159;RUE MONTMARTRE;0;;2.342715;48.870835;"{""coordinates"": [2.3427149997133623, 48.87083499907002], ""type"": ""Point""}";48.87083499907002, 2.3427149997133623
1317;ESSABRE;51;RUE CUSTINE;0;;2.343762;48.889462;"{""coordinates"": [2.3437619994315964, 48.8894619988266], ""type"": ""Point""}";48.8894619988266, 2.3437619994315964
1339;LE RUBIS;14;RUE LEOPOLD BELLAN;0;;2.346042;48.866593;"{""coordinates"": [2.3460420002127305, 48.86659299926494], ""type"": ""Point""}";48.86659299926494, 2.3460420002127305
1775;RODIN IMMOBILIER;218;AVENUE DAUMESNIL;0;;2.400658;48.837496;"{""coordinates"": [2.4006579994656567, 48.837495999421044], ""type"": ""Point""}";48.837495999421044, 2.4006579994656567
1797;MS COIFFURE;263;AVENUE DAUMESNIL;0;;2.404739;48.836449;"{""coordinates"": [2.404739000285008, 48.836448999350516], ""type"": ""Point""}";48.836448999350516, 2.404739000285008
1485;ATELIER COIFFURE MARAIS;51;RUE DE BRETAGNE;0;;2.361111;48.863541;"{""coordinates"": [2.3611110001879987, 48.86354099879716], ""type"": ""Point""}";48.86354099879716, 2.3611110001879987
1552;MAREVA CAFE;38;RUE DU FAUBOURG DU TEMPLE;0;;2.368662;48.869129;"{""coordinates"": [2.3686620000326295, 48.86912899915507], ""type"": ""Point""}";48.86912899915507, 2.3686620000326295
1554;NICOLAS OBERKAMPF;30;BOULEVARD VOLTAIRE;0;;2.369059;48.864196;"{""coordinates"": [2.3690589997849245, 48.86419599862284], ""type"": ""Point""}";48.86419599862284, 2.3690589997849245
1597;LUSH PARIS SAINT-ANTOINE;50;RUE DU FAUBOURG SAINT-ANTOINE;0;;2.372817;48.852037;"{""coordinates"": [2.372817000442847, 48.85203699885598], ""type"": ""Point""}";48.85203699885598, 2.372817000442847
1603;POKAWA OBERKAMPF;56;RUE OBERKAMPF;0;;2.37334;48.864741;"{""coordinates"": [2.3733400000205336, 48.864740999304416], ""type"": ""Point""}";48.864740999304416, 2.3733400000205336
1641;HANG ART;63;QUAI DE LA SEINE;0;;2.376519;48.887734;"{""coordinates"": [2.376519000462273, 48.88773399942431], ""type"": ""Point""}";48.88773399942431, 2.376519000462273
1673;LES COULISSES DU VIN;1;RUE PRIMO LEVI;0;;2.380544;48.83128;"{""coordinates"": [2.380544000328654, 48.831279999383824], ""type"": ""Point""}";48.831279999383824, 2.380544000328654
1712;DREI PARIS;21;RUE DE LA VILLETTE;0;;2.387342;48.875775;"{""coordinates"": [2.3873419993831453, 48.87577499884982], ""type"": ""Point""}";48.87577499884982, 2.3873419993831453
1715;BOREALIA;33;RUE DE LA VILLETTE;0;;2.387631;48.876552;"{""coordinates"": [2.387631000570711, 48.8765519994914], ""type"": ""Point""}";48.8765519994914, 2.387631000570711
1717;BOUFILS;118;RUE DE BELLEVILLE;0;;2.388116;48.874634;"{""coordinates"": [2.3881160005454762, 48.87463399907332], ""type"": ""Point""}";48.87463399907332, 2.3881160005454762
1947;METRO PORTE DE VINCENNES;0;COURS DE VINCENNES / RUE DU GENERAL NIESSEL;0;;2.4089223;48.8472673;"{""coordinates"": [2.4089223003509534, 48.84726729901273], ""type"": ""Point""}";48.84726729901273, 2.4089223003509534
1851;2G ALESIA LE RAJASTHAN;61;RUE DE COUEDIC;0;;2.3295;48.830028;"{""coordinates"": [2.3294999994234176, 48.8300279989821], ""type"": ""Point""}";48.8300279989821, 2.3294999994234176
1351;L ENVELOPE;10;RUE RICHER;0;;2.347004;48.874083;"{""coordinates"": [2.3470039999605556, 48.87408299863128], ""type"": ""Point""}";48.87408299863128, 2.3470039999605556
1905;MAIWAX CREATEUR LUNETIER;0;RUE SAINT PAUL;0;;2.360854;48.852847;"{""coordinates"": [2.3608540004885112, 48.85284699923573], ""type"": ""Point""}";48.85284699923573, 2.3608540004885112
892;LA MARINE;59;BOULEVARD DU MONTPARNASSE;0;;2.323276;48.844294;"{""coordinates"": [2.323276000357916, 48.84429399896598], ""type"": ""Point""}";48.84429399896598, 2.323276000357916
921;PHARMACIE SAINT MEDARD;146;RUE MOUFFETARD;0;;2.349824;48.839143;"{""coordinates"": [2.3498239994744172, 48.83914299871388], ""type"": ""Point""}";48.83914299871388, 2.3498239994744172
975;LIBRAIRIE L INSTANT;118;RUE DE LOURMEL;0;;2.285761;48.842505;"{""coordinates"": [2.2857609997621613, 48.84250499916823], ""type"": ""Point""}";48.84250499916823, 2.2857609997621613
977;LA GRIOTTE;55;BOULEVARD GOUVION-SAINT-CYR;0;;2.286001;48.881553;"{""coordinates"": [2.2860010002132265, 48.881552998946844], ""type"": ""Point""}";48.881552998946844, 2.2860010002132265
999;DUO STYLE COIFFURE;28;RUE DE L ABBE GROULT;0;;2.294476;48.841863;"{""coordinates"": [2.2944760001033995, 48.84186299871749], ""type"": ""Point""}";48.84186299871749, 2.2944760001033995
1054;AU 36;171;AVENUE DE CLICHY;0;;2.316661;48.892474;"{""coordinates"": [2.3166609995304523, 48.89247399948443], ""type"": ""Point""}";48.89247399948443, 2.3166609995304523
1062;RESTAURANT SWOON S;10;RUE DES SAUSSAIES;0;;2.317628;48.871267;"{""coordinates"": [2.317628000476234, 48.87126699927367], ""type"": ""Point""}";48.87126699927367, 2.317628000476234
1073;LES FROMAGES DES BATIGNOLLES;33;RUE DES MOINES;0;;2.319826;48.889405;"{""coordinates"": [2.3198260002865987, 48.889404999378826], ""type"": ""Point""}";48.889404999378826, 2.3198260002865987
935;PHARMACIE DE LA MAIRIE;1;RUE ARMAND CARREL;0;;2.381356;48.882438;"{""coordinates"": [2.381355999975632, 48.88243799910256], ""type"": ""Point""}";48.88243799910256, 2.381355999975632
949;PHARMACIE DU PARC DES PRINCES;92;BOULEVARD MURAT;0;;2.256071;48.840212;"{""coordinates"": [2.256070999796405, 48.840211998946884], ""type"": ""Point""}";48.840211998946884, 2.256070999796405
1365;LEVEL COWORKING;11;RUE DE L ECOLE POLYTECHNIQUE;0;;2.347661;48.847703;"{""coordinates"": [2.347660999964219, 48.84770299907875], ""type"": ""Point""}";48.84770299907875, 2.347660999964219
1374;INOVEAT;5;RUE MARIE STUART;0;;2.348111;48.864955;"{""coordinates"": [2.3481110001459324, 48.864954998938366], ""type"": ""Point""}";48.864954998938366, 2.3481110001459324
1430;RETOUCHE MER EGEE;7;RUE LACEPEDE;0;;2.353688;48.843635;"{""coordinates"": [2.35368799938106, 48.843634999067014], ""type"": ""Point""}";48.843634999067014, 2.35368799938106
1137;VILLAMEDICI;11;RUE SAINT-PLACIDE;0;;2.325003;48.849534;"{""coordinates"": [2.3250030001015, 48.84953399926257], ""type"": ""Point""}";48.84953399926257, 2.3250030001015
1143;CAEPUS;17;RUE DUPHOT;0;;2.325456;48.868446;"{""coordinates"": [2.3254560000507287, 48.868445998968774], ""type"": ""Point""}";48.868445998968774, 2.3254560000507287
1151;LE CERTA;5;RUE DE L ISLY;0;;2.325917;48.874748;"{""coordinates"": [2.3259169998034652, 48.874747999475495], ""type"": ""Point""}";48.874747999475495, 2.3259169998034652
1168;PHO 68;70;RUE DE CLICHY;0;;2.328172;48.88214;"{""coordinates"": [2.328172000520404, 48.88213999929029], ""type"": ""Point""}";48.88213999929029, 2.328172000520404
1192;ZINCOU;50;RUE BLANCHE;0;;2.331491;48.880145;"{""coordinates"": [2.3314910003586244, 48.88014499883177], ""type"": ""Point""}";48.88014499883177, 2.3314910003586244
1213;LE PETIT 18;48;RUE DAMREMONT;0;;2.334099;48.89002;"{""coordinates"": [2.3340989995644263, 48.890019999203325], ""type"": ""Point""}";48.890019999203325, 2.3340989995644263
1238;LUSH PARIS BUCI;30;RUE DE BUCI;0;;2.336257;48.853604;"{""coordinates"": [2.33625700001857, 48.853603999420926], ""type"": ""Point""}";48.853603999420926, 2.33625700001857
1266;GALERIE LAROCK-GRANOFF;13;QUAI DE CONTI;0;;2.338244;48.856967;"{""coordinates"": [2.3382440005095275, 48.85696699922705], ""type"": ""Point""}";48.85696699922705, 2.3382440005095275
1276;BAO BAO TEA;10;RUE DAUPHINE;0;;2.340119;48.85577;"{""coordinates"": [2.340119000679727, 48.85576999899273], ""type"": ""Point""}";48.85576999899273, 2.340119000679727
1279;CAFES M;1;RUE DE MAUBEUGE;0;;2.340402;48.876232;"{""coordinates"": [2.3404019997022645, 48.87623199897441], ""type"": ""Point""}";48.87623199897441, 2.3404019997022645
1321;ALLA MANO;112;RUE MONTMARTRE;0;;2.343964;48.867637;"{""coordinates"": [2.3439639998493838, 48.867636999422345], ""type"": ""Point""}";48.867636999422345, 2.3439639998493838
1335;HOTEL PETIT LAFAYETTE;46;RUE DE TREVISE;0;;2.345661;48.876136;"{""coordinates"": [2.345660999536497, 48.876135998614714], ""type"": ""Point""}";48.876135998614714, 2.345660999536497
1770;BRISTRO CHANTEFABLE;93;AVENUE GAMBETTA;0;;2.399659;48.866465;"{""coordinates"": [2.39965900018612, 48.86646499920335], ""type"": ""Point""}";48.86646499920335, 2.39965900018612
1773;NATURE EN VILLE RELAIS DE PRODUCTEURS;191;RUE DES PYRENEES;0;;2.400128;48.861363;"{""coordinates"": [2.4001279998502603, 48.861362999273794], ""type"": ""Point""}";48.861362999273794, 2.4001279998502603
1500;RESIDENCE KANN COFFEE SHOP;28;RUE DES VINAIGRIERS;0;;2.362831;48.873206;"{""coordinates"": [2.362830999627096, 48.87320599927868], ""type"": ""Point""}";48.87320599927868, 2.362830999627096
1507;TENDERNESS;4;RUE CHARLES MOUREU;0;;2.363437;48.826879;"{""coordinates"": [2.3634370003728216, 48.826878999041746], ""type"": ""Point""}";48.826878999041746, 2.3634370003728216
1520;LE JIVAMUKTI;92;QUAI DE JEMMAPES;0;;2.364543;48.872944;"{""coordinates"": [2.3645429998518073, 48.872943999421956], ""type"": ""Point""}";48.872943999421956, 2.3645429998518073
1559;WISP;21;AVENUE CLAUDE VELLEFAUX;0;;2.370145;48.875657;"{""coordinates"": [2.370144999527016, 48.875656998779206], ""type"": ""Point""}";48.875656998779206, 2.370144999527016
1601;LABEL RECUP;27;RUE DE LA FOLIE-MERICOURT;0;;2.373115;48.862846;"{""coordinates"": [2.3731149993983354, 48.86284599890872], ""type"": ""Point""}";48.86284599890872, 2.3731149993983354
1605;ELEFTHERIA;115;RUE DU CHEVALERET;0;;2.373448;48.831386;"{""coordinates"": [2.3734479996746516, 48.83138599911144], ""type"": ""Point""}";48.83138599911144, 2.3734479996746516
1653;AU JARDIN DES SAVEURS;100;RUE OBERKAMPF;0;;2.378299;48.865801;"{""coordinates"": [2.378299000313228, 48.865800999054564], ""type"": ""Point""}";48.865800999054564, 2.378299000313228
1658;PICARDE;121;RUE OBERKAMPF;0;;2.378891;48.866088;"{""coordinates"": [2.37889099944798, 48.86608799923336], ""type"": ""Point""}";48.86608799923336, 2.37889099944798
1689;AU BLE D OR;160;RUE OBERKAMPF;0;;2.382435;48.866805;"{""coordinates"": [2.3824350003042505, 48.86680499917392], ""type"": ""Point""}";48.86680499917392, 2.3824350003042505
1706;NICOLAS;24;COUR SAINT-EMILION;0;;2.386326;48.832822;"{""coordinates"": [2.3863260001139657, 48.83282199918326], ""type"": ""Point""}";48.83282199918326, 2.3863260001139657
1727;BENOIT CASTEL;11;RUE SORBIER;0;;2.390479;48.868033;"{""coordinates"": [2.390479000306198, 48.86803299868415], ""type"": ""Point""}";48.86803299868415, 2.390479000306198
1752;AFFLELOU;176;AVENUE DAUMESNIL;0;;2.396852;48.838893;"{""coordinates"": [2.3968520000099502, 48.83889299877802], ""type"": ""Point""}";48.83889299877802, 2.3968520000099502
1754;ATOUTLIVRE BD;54;BOULEVARD DE REUILLY;0;;2.39716;48.839377;"{""coordinates"": [2.39716000000046, 48.839376999317196], ""type"": ""Point""}";48.839376999317196, 2.39716000000046
1896;NM COIFFURE MODISH;29;RUE BLEUE;0;;2.344758;48.875955;"{""coordinates"": [2.3447580006502573, 48.875954999010816], ""type"": ""Point""}";48.875954999010816, 2.3447580006502573
1957;METRO NATION;6;PLACE DE LA NATION / RUE DORIAN;0;;2.3952299;48.8477818;"{""coordinates"": [2.395229900535347, 48.84778179864698], ""type"": ""Point""}";48.84778179864698, 2.395229900535347
1975;METRO DAUMESNIL;105;RUE CLAUDE DECAEN;0;;2.3958548;48.8392473;"{""coordinates"": [2.395854800094931, 48.8392472991689], ""type"": ""Point""}";48.8392472991689, 2.395854800094931
1807;HOTEL ROSALIE;0;AVENUE DE LA SŒUR ROSALIE;0;;2.353704;48.83209;"{""coordinates"": [2.353704000013984, 48.83208999866717], ""type"": ""Point""}";48.83208999866717, 2.353704000013984
1811;LES PETITES MAINS;10;AVENUE PIERRE 1ER DE SERBIE;0;;2.296571;48.865971;"{""coordinates"": [2.2965709998331727, 48.865970998930194], ""type"": ""Point""}";48.865970998930194, 2.2965709998331727
1813;HOTEL ADAGIO PARIS HAUSSMANN;0;BOULEVARD HAUSSMANN;0;;2.313447;48.875043;"{""coordinates"": [2.313447000177983, 48.87504299936569], ""type"": ""Point""}";48.87504299936569, 2.313447000177983
1997;MARIN D EAU DOUCE;37;QUAI DE LA SEINE;0;;2.3729652;48.8860218;"{""coordinates"": [2.372965200571217, 48.88602179944098], ""type"": ""Point""}";48.88602179944098, 2.372965200571217
912;FAGGIO;16;PASSAGE DES PANORAMAS;0;;2.341704;48.870983;"{""coordinates"": [2.341703999931035, 48.87098299921155], ""type"": ""Point""}";48.87098299921155, 2.341703999931035
925;YANN COUVREUR;137;AVENUE PARMENTIER;0;;2.370764;48.870127;"{""coordinates"": [2.3707639996556833, 48.870126998966825], ""type"": ""Point""}";48.870126998966825, 2.3707639996556833
986;FRANPRIX GOUVION;25;BOULEVARD GOUVION-SAINT-CYR;0;;2.288935;48.883777;"{""coordinates"": [2.2889349993209827, 48.88377699924012], ""type"": ""Point""}";48.88377699924012, 2.2889349993209827
1011;HOTEL EIFFEL BLOMET;78;RUE BLOMET;0;;2.302377;48.841599;"{""coordinates"": [2.302377000476009, 48.84159899908829], ""type"": ""Point""}";48.84159899908829, 2.302377000476009
1021;CANTEEN CAFE;16;RUE MALAR;0;;2.305829;48.860248;"{""coordinates"": [2.3058290003163084, 48.86024799935601], ""type"": ""Point""}";48.86024799935601, 2.3058290003163084
1040;DADA1920;3;RUE DE PHALSBOURG;0;;2.308906;48.881401;"{""coordinates"": [2.3089060003540482, 48.88140099906822], ""type"": ""Point""}";48.88140099906822, 2.3089060003540482
1077;VIVAIO;28;RUE DE LA PEPINIERE;0;;2.32037;48.875024;"{""coordinates"": [2.3203699997228693, 48.87502399924689], ""type"": ""Point""}";48.87502399924689, 2.3203699997228693
1079;PAUL;41;BOULEVARD MALESHERBES;0;;2.320444;48.873653;"{""coordinates"": [2.3204440003952245, 48.873652999021246], ""type"": ""Point""}";48.873652999021246, 2.3204440003952245
1102;PIZZA PINO;57;BOULEVARD DU MONTPARNASSE;0;;2.323043;48.844371;"{""coordinates"": [2.323043000216892, 48.84437099912828], ""type"": ""Point""}";48.84437099912828, 2.323043000216892
953;LE RECEPTEUR;3;AVENUE THEOPHILE GAUTIER;0;;2.275186;48.851015;"{""coordinates"": [2.2751859995341928, 48.851014999196046], ""type"": ""Point""}";48.851014999196046, 2.2751859995341928
1429;BIOBURGER;54;AVENUE DES GOBELINS;0;;2.353622;48.833797;"{""coordinates"": [2.353621999507867, 48.83379699890642], ""type"": ""Point""}";48.83379699890642, 2.353621999507867
1166;LE PAUL FORT;34;RUE PAUL FORT;0;;2.328112;48.824096;"{""coordinates"": [2.3281120004486313, 48.82409599878069], ""type"": ""Point""}";48.82409599878069, 2.3281120004486313
1215;LE MANCHON D HENRI;8;RUE GUISARDE;0;;2.334384;48.851911;"{""coordinates"": [2.334384000204205, 48.85191099883376], ""type"": ""Point""}";48.85191099883376, 2.334384000204205
1242;ZENZOO;2;RUE CHABANAIS;0;;2.336703;48.866964;"{""coordinates"": [2.336703000151975, 48.86696399935919], ""type"": ""Point""}";48.86696399935919, 2.336703000151975
1260;M. JACQUES;24;RUE LAFFITTE;0;;2.337776;48.873092;"{""coordinates"": [2.3377759997855168, 48.87309199872949], ""type"": ""Point""}";48.87309199872949, 2.3377759997855168
1292;MAISON ET SERVICE PARIS 5;18;RUE GAY-LUSSAC;0;;2.341393;48.845299;"{""coordinates"": [2.341393000599762, 48.84529899874479], ""type"": ""Point""}";48.84529899874479, 2.341393000599762
1499;AUBERGE DE JEUNESSE HI PARIS;20;ESPLANADE NATHALIE SARRAUTE;0;;2.362759;48.888674;"{""coordinates"": [2.3627589994015548, 48.88867399884996], ""type"": ""Point""}";48.88867399884996, 2.3627589994015548
1513;LE PROGRES MARAIS;1;RUE DE BRETAGNE;0;;2.364105;48.861972;"{""coordinates"": [2.364105000415393, 48.86197199894414], ""type"": ""Point""}";48.86197199894414, 2.364105000415393
1524;TEN BELLES;10;RUE DE LA GRANGE AUX BELLES;0;;2.364779;48.873549;"{""coordinates"": [2.3647789998920468, 48.87354899910391], ""type"": ""Point""}";48.87354899910391, 2.3647789998920468
1537;MERCI NOEL;113;BOULEVARD BEAUMARCHAIS;0;;2.367007;48.860893;"{""coordinates"": [2.3670070006683197, 48.860892999281766], ""type"": ""Point""}";48.860892999281766, 2.3670070006683197
1541;PATACHOUX;69;BOULEVARD BEAUMARCHAIS;0;;2.367705;48.858;"{""coordinates"": [2.3677050005685434, 48.85799999909467], ""type"": ""Point""}";48.85799999909467, 2.3677050005685434
1562;FARINEZ VOUS;19;RUE DU CHATEAU DES RENTIERS;0;;2.370538;48.823758;"{""coordinates"": [2.3705380001795464, 48.823757999076356], ""type"": ""Point""}";48.823757999076356, 2.3705380001795464
1584;VISION PLUS;85;RUE DU FAUBOURG DU TEMPLE;0;;2.372139;48.870413;"{""coordinates"": [2.372138999967555, 48.87041299903056], ""type"": ""Point""}";48.87041299903056, 2.372138999967555
1616;LE PICOULET;59;RUE DE LA FONTAINE AU ROI;0;;2.374245;48.868351;"{""coordinates"": [2.3742450005535907, 48.86835099951507], ""type"": ""Point""}";48.86835099951507, 2.3742450005535907
1693;BANCS PUBLIQUES;2;RUE DE NANTES;0;;2.383781;48.891012;"{""coordinates"": [2.3837810005665845, 48.8910119988941], ""type"": ""Point""}";48.8910119988941, 2.3837810005665845
1701;URBAN BAKERY;401;RUE DES PYRENEES;0;;2.385657;48.873817;"{""coordinates"": [2.3856569999186448, 48.87381699891323], ""type"": ""Point""}";48.87381699891323, 2.3856569999186448
1722;ASSOCIATION D2L;1;RUE DE LA SOLIDARITE;0;;2.389488;48.883011;"{""coordinates"": [2.3894880006216423, 48.88301099936366], ""type"": ""Point""}";48.88301099936366, 2.3894880006216423
1731;L IMPODERABLE;320;RUE DES PYRENEES;0;;2.390977;48.872803;"{""coordinates"": [2.390977000189731, 48.87280299888632], ""type"": ""Point""}";48.87280299888632, 2.390977000189731
1891;ECOLE ESTIENNE;18;BD AUGUSTE BLANQUI;0;;2.352435;48.830777;"{""coordinates"": [2.352435000530988, 48.83077699910813], ""type"": ""Point""}";48.83077699910813, 2.352435000530988
1935;BIBLIOTHEQUE LOUISE WALSER-GAILLARD;26;RUE CHAPTAL;0;;2.3323039;48.8811111;"{""coordinates"": [2.332303900175801, 48.88111109910951], ""type"": ""Point""}";48.88111109910951, 2.332303900175801
1806;HOTEL ADAGIO PARIS LA VILLETTE;0;AVENUE CORENTIN CARIOU;0;;2.384811;48.896532;"{""coordinates"": [2.384810999365755, 48.89653199947907], ""type"": ""Point""}";48.89653199947907, 2.384810999365755
1841;PAUL;77;RUE DE SEINE;0;;2.337051;48.853727;"{""coordinates"": [2.3370510003961327, 48.853726999176544], ""type"": ""Point""}";48.853726999176544, 2.3370510003961327
1863;MAISON MAISON;63;VOIE GEORGES POMPIDOU;0;;2.341421;48.859012;"{""coordinates"": [2.341421000122713, 48.85901199916228], ""type"": ""Point""}";48.85901199916228, 2.341421000122713
1563;BIOCOOP;19;AVENUE DE LA REPUBLIQUE;0;;2.370562;48.866169;"{""coordinates"": [2.3705620003359114, 48.86616899870804], ""type"": ""Point""}";48.86616899870804, 2.3705620003359114
1995;MEDIATHEQUE MARGUERITE DURAS;115;RUE DE BAGNOLET;0;;2.4031404;48.8598781;"{""coordinates"": [2.403140400359011, 48.85987809863202], ""type"": ""Point""}";48.85987809863202, 2.403140400359011
1927;PRINCESSE LALA;25;RUE FAIDHERBE;0;;2.3831889;48.8523116;"{""coordinates"": [2.383188899532914, 48.85231159933441], ""type"": ""Point""}";48.85231159933441, 2.383188899532914
898;LE CAFE DE LA POSTE;76;RUE DAMREMONT;0;;2.335004;48.891523;"{""coordinates"": [2.3350039996075345, 48.89152299909943], ""type"": ""Point""}";48.89152299909943, 2.3350039996075345
899;LE PETIT NEY;10;AVENUE DE LA PORTE DE MONTMARTRE;0;;2.336915;48.89869;"{""coordinates"": [2.3369149999381063, 48.898689998876144], ""type"": ""Point""}";48.898689998876144, 2.3369149999381063
904;LE VIZIR;42;RUE LA FAYETTE;0;;2.339564;48.874628;"{""coordinates"": [2.339564000410375, 48.87462799942425], ""type"": ""Point""}";48.87462799942425, 2.339564000410375
974;BULPAN;93;RUE DE JAVEL;0;;2.285222;48.844276;"{""coordinates"": [2.285221999352575, 48.84427599900193], ""type"": ""Point""}";48.84427599900193, 2.285221999352575
984;SARL GERBE ROYALE;20;BOULEVARD GOUVION-SAINT-CYR;0;;2.288676;48.884016;"{""coordinates"": [2.28867599947559, 48.88401599872779], ""type"": ""Point""}";48.88401599872779, 2.28867599947559
990;RESTAURANT STEPHANE MARTIN;67;RUE DES ENTREPRENEURS;0;;2.289787;48.845018;"{""coordinates"": [2.289786999446152, 48.845017999309476], ""type"": ""Point""}";48.845017999309476, 2.289786999446152
1047;FROMAGERIE DIDOT;108;RUE DIDOT;0;;2.313129;48.826499;"{""coordinates"": [2.313128999763592, 48.82649899881567], ""type"": ""Point""}";48.82649899881567, 2.313128999763592
1053;LES BISCUITS DE CLAIRE ET JULIE;88;RUE DIDOT;0;;2.316041;48.828459;"{""coordinates"": [2.3160409994626203, 48.82845899922764], ""type"": ""Point""}";48.82845899922764, 2.3160409994626203
1070;CREATIONS ET SUR MESURE;22;RUE MAYET;0;;2.319306;48.846189;"{""coordinates"": [2.3193060000005863, 48.84618899897436], ""type"": ""Point""}";48.84618899897436, 2.3193060000005863
1089;L EPICERIE JEANNE;108;RUE DU CHERCHE-MIDI;0;;2.321079;48.846754;"{""coordinates"": [2.3210790003027357, 48.84675399909094], ""type"": ""Point""}";48.84675399909094, 2.3210790003027357
1105;POKE BAR CHERCHE MIDI;84;RUE DU CHERCHE-MIDI;0;;2.323269;48.847908;"{""coordinates"": [2.323268999656773, 48.847907998679744], ""type"": ""Point""}";48.847907998679744, 2.323268999656773
1108;LES DELICES DU KASHMIR;19;RUE DU DEPART;0;;2.323469;48.842443;"{""coordinates"": [2.323468999435184, 48.84244299934488], ""type"": ""Point""}";48.84244299934488, 2.323468999435184
1343;DERNIER BAR AVANT LA FIN DU MONDE;19;AVENUE VICTORIA;0;;2.346467;48.857917;"{""coordinates"": [2.3464670006371184, 48.85791699872161], ""type"": ""Point""}";48.85791699872161, 2.3464670006371184
1369;NATURALE;40;RUE DU FAUBOURG POISSONNIERE;0;;2.348008;48.873599;"{""coordinates"": [2.348007999610462, 48.87359899877903], ""type"": ""Point""}";48.87359899877903, 2.348007999610462
1382;CLINIQUE VETERINAIRE ARGOS PARADIS;53;RUE DE PARADIS;0;;2.34893;48.875615;"{""coordinates"": [2.3489300000056823, 48.87561499907336], ""type"": ""Point""}";48.87561499907336, 2.3489300000056823
1903;CAFE TRANQUILLE;147;RUE DU FAUBOURG SAINT-DENIS;0;;2.356434;48.87827;"{""coordinates"": [2.3564340000170527, 48.87826999903406], ""type"": ""Point""}";48.87826999903406, 2.3564340000170527
1460;SOAP AND THE CITY;75;RUE DU FAUBOURG SAINT-MARTIN;0;;2.357388;48.872373;"{""coordinates"": [2.3573879995626354, 48.87237299916183], ""type"": ""Point""}";48.87237299916183, 2.3573879995626354
1461;LEONIDAS;108;AVENUE D ITALIE;0;;2.357467;48.824601;"{""coordinates"": [2.3574670006086844, 48.82460099905253], ""type"": ""Point""}";48.82460099905253, 2.3574670006086844
1120;EDEN BIO;72;RUE DU CHERCHE-MIDI;0;;2.324015;48.848309;"{""coordinates"": [2.3240150003634867, 48.84830899866597], ""type"": ""Point""}";48.84830899866597, 2.3240150003634867
1123;L  OPPORTUN;62;BOULEVARD EDGAR QUINET;0;;2.324159;48.841606;"{""coordinates"": [2.3241590006403703, 48.841605998968916], ""type"": ""Point""}";48.841605998968916, 2.3241590006403703
1128;LIBRAIRIE D ODESSA;20;RUE D ODESSA;0;;2.324613;48.841729;"{""coordinates"": [2.324613000295843, 48.8417289989221], ""type"": ""Point""}";48.8417289989221, 2.324613000295843
1170;HOTEL ADAGIO PARIS OPERA;43;RUE DE CAUMARTIN;0;;2.328189;48.872729;"{""coordinates"": [2.32818900039583, 48.87272899941303], ""type"": ""Point""}";48.87272899941303, 2.32818900039583
1205;CHEZ VICTOR;69;RUE DE PROVENCE;0;;2.333025;48.874249;"{""coordinates"": [2.3330249993894583, 48.87424899877493], ""type"": ""Point""}";48.87424899877493, 2.3330249993894583
1270;SOCIETE FARAH;145;RUE MARCADET;0;;2.33917;48.891181;"{""coordinates"": [2.3391699995969026, 48.89118099947071], ""type"": ""Point""}";48.89118099947071, 2.3391699995969026
1282;LES PIEDS SOUS LA TABLE;48;RUE MONSIEUR LE PRINCE;0;;2.340513;48.848562;"{""coordinates"": [2.3405130005113466, 48.84856199923877], ""type"": ""Point""}";48.84856199923877, 2.3405130005113466
1301;DECATHLON CITY SAINT GERMAIN;104;BOULEVARD SAINT-GERMAIN;0;;2.342679;48.851663;"{""coordinates"": [2.342678999454266, 48.85166299904547], ""type"": ""Point""}";48.85166299904547, 2.342678999454266
1307;CAVISTE NICOLAS LETORT;4;PLACE CHARLES BERNARD;0;;2.343064;48.893449;"{""coordinates"": [2.3430640002810845, 48.89344899914251], ""type"": ""Point""}";48.89344899914251, 2.3430640002810845
1308;BIEN ELEVE;47;RUE RICHER;0;;2.34322;48.873992;"{""coordinates"": [2.343219999946905, 48.873991999086314], ""type"": ""Point""}";48.873991999086314, 2.343219999946905
1311;L OLIVIER BEYROUTH;25;RUE FRANCISQUE GAY;0;;2.343354;48.852831;"{""coordinates"": [2.3433539997879924, 48.85283099935944], ""type"": ""Point""}";48.85283099935944, 2.3433539997879924
1778;PICARD;157;RUE DES PYRENEES;0;;2.40171;48.859332;"{""coordinates"": [2.401710000168269, 48.8593319986577], ""type"": ""Point""}";48.8593319986577, 2.401710000168269
1536;MAC RENEW;212;RUE LA FAYETTE;0;;2.366956;48.881817;"{""coordinates"": [2.3669559995629585, 48.88181699926906], ""type"": ""Point""}";48.88181699926906, 2.3669559995629585
1583;EXPRESS DE LYON;1;RUE DE LYON;0;;2.372109;48.845937;"{""coordinates"": [2.372108999408242, 48.84593699896689], ""type"": ""Point""}";48.84593699896689, 2.372108999408242
1585;GREEN OWL;41;RUE DE LA FOLIE-MERICOURT;0;;2.372235;48.863615;"{""coordinates"": [2.3722349995083802, 48.86361499907746], ""type"": ""Point""}";48.86361499907746, 2.3722349995083802
1590;PHARMACIE DELALANDE LE DANTEC;130;AVENUE PARMENTIER;0;;2.372338;48.86849;"{""coordinates"": [2.3723380006400085, 48.86848999891698], ""type"": ""Point""}";48.86848999891698, 2.3723380006400085
1595;L ART DU SANDWICH;99;RUE DU DESSOUS DES BERGES;0;;2.372731;48.828574;"{""coordinates"": [2.3727309994720374, 48.82857399886938], ""type"": ""Point""}";48.82857399886938, 2.3727309994720374
1623;RSI;7;RUE JEAN GIONO;0;;2.374432;48.83569;"{""coordinates"": [2.3744319994713914, 48.83568999903346], ""type"": ""Point""}";48.83568999903346, 2.3744319994713914
1637;BIOCOOP PARMENTIER;72;AVENUE PARMENTIER;0;;2.375854;48.863734;"{""coordinates"": [2.3758539998729202, 48.8637339992271], ""type"": ""Point""}";48.8637339992271, 2.3758539998729202
1651;AUX FOLIES;8;RUE DE BELLEVILLE;0;;2.377908;48.872244;"{""coordinates"": [2.377908000424313, 48.87224399922786], ""type"": ""Point""}";48.87224399922786, 2.377908000424313
1708;GLAZART;7;AVENUE DE LA PORTE DE LA VILLETTE;0;;2.38643;48.899015;"{""coordinates"": [2.3864299993810905, 48.89901499918074], ""type"": ""Point""}";48.89901499918074, 2.3864299993810905
1721;CA DECOIFFE;5;RUE CONSTANT BERTHAUT;0;;2.38919;48.874453;"{""coordinates"": [2.3891899994977708, 48.87445299924568], ""type"": ""Point""}";48.87445299924568, 2.3891899994977708
1885;PETIT PALAIS, MUSEE DES BEAUX-ARTS DE LA VILLE DE PARIS;0;AVENUE WINSTON-CHURCHILL;0;;2.314398;48.865635;"{""coordinates"": [2.314398000165656, 48.86563499927332], ""type"": ""Point""}";48.86563499927332, 2.314398000165656
1940;BIBLIOTHEQUE BENJAMIN RABIER;141;AVENUE DE FLANDRE;0;;2.379128;48.8927502;"{""coordinates"": [2.379127999341342, 48.892750199129765], ""type"": ""Point""}";48.892750199129765, 2.379127999341342
1955;METRO STRASBOURG-SAINT-DENIS;0;BOULEVARD DE SEBASTOPOL / BOULEVARD SAINT-DENIS;0;;2.3539343;48.8693426;"{""coordinates"": [2.3539343006654705, 48.8693425994147], ""type"": ""Point""}";48.8693425994147, 2.3539343006654705
1971;METRO GARE DE L EST;0;BOULEVARD DE STRASBOURG;0;;2.3580906;48.8761275;"{""coordinates"": [2.3580906005178996, 48.87612749864593], ""type"": ""Point""}";48.87612749864593, 2.3580906005178996
1864;ART BISTRO;0;RUE DE CLICHY;0;;2.3287568;48.8808433;"{""coordinates"": [2.3287567995919876, 48.880843298803065], ""type"": ""Point""}";48.880843298803065, 2.3287567995919876
1267;POKE STREET;78;RUE LAMARCK;0;;2.338315;48.890067;"{""coordinates"": [2.3383150002047692, 48.8900669986603], ""type"": ""Point""}";48.8900669986603, 2.3383150002047692
1996;CAJOU;101;RUE DU CHEVALERET;0;;2.3747463;48.8305598;"{""coordinates"": [2.374746299638763, 48.83055979895487], ""type"": ""Point""}";48.83055979895487, 2.374746299638763
1907;HOTEL LITTERAIRE ARTHUR RIMBAUD;6;RUE GUSTAVE GOUBLIER;0;;2.3557155;48.8709425;"{""coordinates"": [2.355715500010171, 48.870942498707535], ""type"": ""Point""}";48.870942498707535, 2.355715500010171
1914;HOTEL PARC SAINT-SEVERIN;22;RUE DE LA PARCHEMINERIE;0;;2.3447693;48.8518127;"{""coordinates"": [2.344769299534843, 48.8518126988578], ""type"": ""Point""}";48.8518126988578, 2.344769299534843
1923;APOLONIA MONTMARTRE;147;RUE MERCADET;0;;2.3389967;48.8912079;"{""coordinates"": [2.338996700227488, 48.891207898635855], ""type"": ""Point""}";48.891207898635855, 2.338996700227488
1932;MON JARDIN CHOCOLATE;28;RUE RAYMOND LOSSERAND;0;;2.3208694;48.8354767;"{""coordinates"": [2.320869399788095, 48.8354766994238], ""type"": ""Point""}";48.8354766994238, 2.320869399788095
903;LA CAVE DU SENAT;16;RUE DE VAUGIRARD;0;;2.339329;48.849126;"{""coordinates"": [2.339329000037205, 48.84912599943741], ""type"": ""Point""}";48.84912599943741, 2.339329000037205
907;LA BONBONNIERE;2;RUE GAZAN;0;;2.339934;48.824187;"{""coordinates"": [2.339934000367693, 48.824186998947084], ""type"": ""Point""}";48.824186998947084, 2.339934000367693
922;LES PANACEES;34;RUE D HAUTEVILLE;0;;2.350402;48.873122;"{""coordinates"": [2.3504020006457416, 48.87312199944448], ""type"": ""Point""}";48.87312199944448, 2.3504020006457416
976;RENAISSANCE NOBEL TOUR EIFFEL HOTEL;55;AVENUE RAYMOND POINCARE;0;;2.285785;48.867234;"{""coordinates"": [2.2857849998976216, 48.86723399901508], ""type"": ""Point""}";48.86723399901508, 2.2857849998976216
1066;LE FOURNIL DE GUILLAUME;70;RUE DE SEVRES;0;;2.318916;48.847764;"{""coordinates"": [2.3189159994259354, 48.84776399883702], ""type"": ""Point""}";48.84776399883702, 2.3189159994259354
1103;LES PARESSEUX;41;RUE DES DAMES;0;;2.323146;48.884116;"{""coordinates"": [2.3231460003239652, 48.884115999070886], ""type"": ""Point""}";48.884115999070886, 2.3231460003239652
936;BIOCOOP BELLEVILLE;62;RUE DE BELLEVILLE;0;;2.382852;48.873372;"{""coordinates"": [2.3828520002161753, 48.87337199939469], ""type"": ""Point""}";48.87337199939469, 2.3828520002161753
970;NOVOTEL PARIS CENTRE TOUR EIFFEL;61;QUAI DE GRENELLE;0;;2.28331;48.850059;"{""coordinates"": [2.2833100005557845, 48.85005899870552], ""type"": ""Point""}";48.85005899870552, 2.2833100005557845
1383;DARJEELING;121;RUE DE CLIGNANCOURT;0;;2.348959;48.89323;"{""coordinates"": [2.3489590002272234, 48.893229999278155], ""type"": ""Point""}";48.893229999278155, 2.3489590002272234
1452;LA CANTINE DE SAM;4;RUE DES FOSSES SAINT-MARCEL;0;;2.356083;48.839255;"{""coordinates"": [2.3560830001585846, 48.83925499883186], ""type"": ""Point""}";48.83925499883186, 2.3560830001585846
1464;KAVIARI DELIKATESSEN;60;RUE FRANCOIS MIRON;0;;2.357926;48.855434;"{""coordinates"": [2.3579260000467324, 48.85543399915191], ""type"": ""Point""}";48.85543399915191, 2.3579260000467324
1406;LE SALON YD;28;RUE MONGE;0;;2.351393;48.846695;"{""coordinates"": [2.3513929997766767, 48.846694998666464], ""type"": ""Point""}";48.846694998666464, 2.3513929997766767
1408;ZHENG JINMU;10;RUE DE MAZAGRAN;0;;2.35164;48.870511;"{""coordinates"": [2.3516400004047315, 48.870510998622265], ""type"": ""Point""}";48.870510998622265, 2.3516400004047315
1410;AB COIFFEUR;42;RUE MONGE;0;;2.351861;48.845551;"{""coordinates"": [2.351861000279414, 48.84555099889287], ""type"": ""Point""}";48.84555099889287, 2.351861000279414
1431;LE 360 PARIS;32;RUE MYRHA;0;;2.353712;48.88719;"{""coordinates"": [2.3537119997600735, 48.88718999908673], ""type"": ""Point""}";48.88718999908673, 2.3537119997600735
1434;SAS LA FERME;5;RUE DES PETITES ECURIES;0;;2.353792;48.872941;"{""coordinates"": [2.353792000173166, 48.87294099934615], ""type"": ""Point""}";48.87294099934615, 2.353792000173166
1116;KIBALOMA;4;PLACE DU DIX-HUIT JUIN 1940;0;;2.323914;48.844291;"{""coordinates"": [2.323913999956543, 48.84429099861984], ""type"": ""Point""}";48.84429099861984, 2.323913999956543
1183;LUSH PARIS LECLERC;34;AVENUE DU GENERAL LECLERC;0;;2.329884;48.831646;"{""coordinates"": [2.3298840000363, 48.83164599899781], ""type"": ""Point""}";48.83164599899781, 2.3298840000363
1209;CHEZ BARTOLO;7;RUE DES CANETTES;0;;2.333783;48.852393;"{""coordinates"": [2.333783000612087, 48.8523929988969], ""type"": ""Point""}";48.8523929988969, 2.333783000612087
1240;POISSONNERIE JAN;4;RUE LOBINEAU;0;;2.336471;48.851813;"{""coordinates"": [2.336471000349936, 48.8518129986428], ""type"": ""Point""}";48.8518129986428, 2.336471000349936
1250;CAFE PIGALLE;7;RUE FROCHOT;0;;2.337327;48.881506;"{""coordinates"": [2.3373270000640396, 48.88150599874045], ""type"": ""Point""}";48.88150599874045, 2.3373270000640396
1272;MONACO;15;RUE DE CHATEAUDUN;0;;2.339529;48.875817;"{""coordinates"": [2.3395289995532873, 48.87581699903346], ""type"": ""Point""}";48.87581699903346, 2.3395289995532873
1302;HOTEL ADAGIO PARIS MONTMARTRE;10;PLACE CHARLES DULLIN;0;;2.342706;48.883382;"{""coordinates"": [2.342706000408361, 48.88338199944904], ""type"": ""Point""}";48.88338199944904, 2.342706000408361
1316;SYNCHRONIQUE EDITION. LIBRAIRIE LE REVE DU PAPILLON;7;RUE DES FOSSES SAINT-JACQUES;0;;2.343738;48.845969;"{""coordinates"": [2.3437379999694024, 48.84596899883602], ""type"": ""Point""}";48.84596899883602, 2.3437379999694024
1527;LE FLOREAL;7;RUE DU FAUBOURG DU TEMPLE;0;;2.365059;48.868133;"{""coordinates"": [2.3650589997264837, 48.86813299864013], ""type"": ""Point""}";48.86813299864013, 2.3650589997264837
1568;PHARMACIE OBERKAMPF MERICOURT;39;RUE OBERKAMPF;0;;2.371304;48.864356;"{""coordinates"": [2.371304000448587, 48.86435599863596], ""type"": ""Point""}";48.86435599863596, 2.371304000448587
1598;LE RIGODON;10;RUE DES TROIS BORNES;0;;2.372981;48.866699;"{""coordinates"": [2.3729809997429165, 48.86669899897298], ""type"": ""Point""}";48.86669899897298, 2.3729809997429165
1649;JUSTINE;96;RUE OBERKAMPF;0;;2.377787;48.865682;"{""coordinates"": [2.3777870006561552, 48.86568199866613], ""type"": ""Point""}";48.86568199866613, 2.3777870006561552
1738;DES FERMES UN QUARTIER;49;RUE DU SERGENT BAUCHAT;0;;2.394241;48.846201;"{""coordinates"": [2.3942410003631283, 48.846200998782784], ""type"": ""Point""}";48.846200998782784, 2.3942410003631283
1865;HOTEL DE PARIS MAINE;51;AVENUE DU MAINE;0;;2.322096;48.840181;"{""coordinates"": [2.3220959997107884, 48.840180999023886], ""type"": ""Point""}";48.840180999023886, 2.3220959997107884
1867;GOUTTES;45;RUE DAMREMONT;0;;2.333986;48.890219;"{""coordinates"": [2.3339860006287725, 48.89021899944459], ""type"": ""Point""}";48.89021899944459, 2.3339860006287725
1873;FRANPRIX;160;AVENUE DE VERSAILLES;0;;2.264136;48.840461;"{""coordinates"": [2.264136000008748, 48.840460999229926], ""type"": ""Point""}";48.840460999229926, 2.264136000008748
1950;METRO GAMBETTA;10;PLACE GAMBETTA;0;;2.398237;48.8649011;"{""coordinates"": [2.3982369993311883, 48.86490109930337], ""type"": ""Point""}";48.86490109930337, 2.3982369993311883
1962;METRO SAINT-AUGUSTIN;85;BOULEVARD HAUSSMANN;0;;2.32139;48.8745326;"{""coordinates"": [2.3213899998177303, 48.87453259878601], ""type"": ""Point""}";48.87453259878601, 2.3213899998177303
1810;LARSON NEWS;90;AVENUE GAMBETTA;0;;2.403089;48.870022;"{""coordinates"": [2.4030890006079755, 48.870021998881285], ""type"": ""Point""}";48.870021998881285, 2.4030890006079755
1146;JEAN-LOUIS DAVID;49;AVENUE DE CLICHY;0;;2.325563;48.88715;"{""coordinates"": [2.3255629996107037, 48.88714999909074], ""type"": ""Point""}";48.88714999909074, 2.3255629996107037
1691;KO HANA, FLEURS & CERAMIQUE;36;AVENUE SIMON BOLIVAR;0;;2.382603;48.87516;"{""coordinates"": [2.382603000122977, 48.875159998900806], ""type"": ""Point""}";48.875159998900806, 2.382603000122977
1994;HOTEL LA NOUVELLE REPUBLIQUE;9;RUE MARGUERITE MORET;0;;2.3795228;48.8669491;"{""coordinates"": [2.3795228001691884, 48.86694909887868], ""type"": ""Point""}";48.86694909887868, 2.3795228001691884
887;STARBUCKS;90;RUE SAINT-DOMINIQUE;0;;2.305867;48.859441;"{""coordinates"": [2.3058670005662067, 48.859440999177416], ""type"": ""Point""}";48.859440999177416, 2.3058670005662067
909;LE PAIN GUINA;60;RUE DES MARTYRS;0;;2.340655;48.880507;"{""coordinates"": [2.3406550004807767, 48.88050699907677], ""type"": ""Point""}";48.88050699907677, 2.3406550004807767
929;LE SOIXANTE-DOUZE;72;RUE DU CHEVALERET;0;;2.374758;48.830936;"{""coordinates"": [2.374757999702443, 48.83093599911403], ""type"": ""Point""}";48.83093599911403, 2.374757999702443
997;WOODY;168;RUE DE LA CONVENTION;0;;2.293317;48.838521;"{""coordinates"": [2.2933170004016747, 48.83852099891114], ""type"": ""Point""}";48.83852099891114, 2.2933170004016747
1072;LEGENDRE IDEAL;92;RUE LEGENDRE;0;;2.319715;48.887277;"{""coordinates"": [2.3197149998233235, 48.887276999311084], ""type"": ""Point""}";48.887276999311084, 2.3197149998233235
1092;SO.BIO PARIS SEVRES;99;RUE DE SEVRES;0;;2.321158;48.848577;"{""coordinates"": [2.3211579994822227, 48.84857699867348], ""type"": ""Point""}";48.84857699867348, 2.3211579994822227
1110;BIEN BIEN HABILLES;35;RUE DES DAMES;0;;2.323603;48.884206;"{""coordinates"": [2.323603000479425, 48.8842059994624], ""type"": ""Point""}";48.8842059994624, 2.323603000479425
955;CHEZ MA POULE;7;RUE GROS;0;;2.27736;48.851271;"{""coordinates"": [2.27736000062664, 48.85127099891308], ""type"": ""Point""}";48.85127099891308, 2.27736000062664
971;MAISON DE LA VIE ASSOCIATIVE ET CITOYENNE DU 16E;14;AVENUE RENE BOYLESVE;0;;2.28418;48.856543;"{""coordinates"": [2.2841800002137664, 48.85654299870293], ""type"": ""Point""}";48.85654299870293, 2.2841800002137664
1345;SHYWAWA;7;RUE DU PETIT PONT;0;;2.346652;48.852546;"{""coordinates"": [2.3466520001639704, 48.852545999305676], ""type"": ""Point""}";48.852545999305676, 2.3466520001639704
1375;NOSSA-CHURRASQUEIRA;1;RUE DE L ECOLE POLYTECHNIQUE;0;;2.348173;48.84739;"{""coordinates"": [2.3481730000839214, 48.84738999868371], ""type"": ""Point""}";48.84738999868371, 2.3481730000839214
1387;LE VILLAGE RONSARD;47;BOULEVARD SAINT-GERMAIN;0;;2.349527;48.849688;"{""coordinates"": [2.3495269993827925, 48.849687999333526], ""type"": ""Point""}";48.849687999333526, 2.3495269993827925
1447;ACADEMIE DU CLIMAT;2;PLACE BAUDOYER;0;;2.355693;48.856188;"{""coordinates"": [2.3556929999340097, 48.856187999186545], ""type"": ""Point""}";48.856187999186545, 2.3556929999340097
1448;LA BUVETTE DE L ACADEMIE DU CLIMAT;2;PLACE BAUDOYER;0;;2.355693;48.856188;"{""coordinates"": [2.3556929999340097, 48.856187999186545], ""type"": ""Point""}";48.856187999186545, 2.3556929999340097
1476;LESAINT ET LE;71;RUE DES ARCHIVES;0;;2.359872;48.862742;"{""coordinates"": [2.359872000366738, 48.86274199929963], ""type"": ""Point""}";48.86274199929963, 2.359872000366738
1477;RESTAURANT RIME;50;RUE MARX DORMOY;0;;2.360017;48.887742;"{""coordinates"": [2.360016999866001, 48.88774199881841], ""type"": ""Point""}";48.88774199881841, 2.360016999866001
1135;L OISEAU DE PARADIS;211;BOULEVARD SAINT-GERMAIN;0;;2.324897;48.856521;"{""coordinates"": [2.3248969998912297, 48.856520998662916], ""type"": ""Point""}";48.856520998662916, 2.3248969998912297
1142;LA MAISON DU QUINOA;11;RUE TRONCHET;0;;2.325415;48.871641;"{""coordinates"": [2.325415000540475, 48.87164099889293], ""type"": ""Point""}";48.87164099889293, 2.325415000540475
1194;FORMAGERIE BLANCHE;70;RUE BLANCHE;0;;2.331697;48.881468;"{""coordinates"": [2.3316970001696764, 48.88146799912015], ""type"": ""Point""}";48.88146799912015, 2.3316970001696764
1237;GILI-GILI;48;RUE NOTRE-DAME DE LORETTE;0;;2.336203;48.879628;"{""coordinates"": [2.3362029994158964, 48.87962799881573], ""type"": ""Point""}";48.87962799881573, 2.3362029994158964
1259;SYPHAX;26;RUE DE CHATEAUDUN;0;;2.337661;48.876134;"{""coordinates"": [2.3376609998836617, 48.876133998865804], ""type"": ""Point""}";48.876133998865804, 2.3376609998836617
1294;LES SAVEURS DE L ORIENT;43;PASSAGE DES PANORAMAS;0;;2.341576;48.870795;"{""coordinates"": [2.341576000374387, 48.8707949994147], ""type"": ""Point""}";48.8707949994147, 2.341576000374387
1763;CHEZ PROSPER;7;AVENUE DU TRONE;0;;2.398237;48.848573;"{""coordinates"": [2.3982370000318514, 48.84857299938859], ""type"": ""Point""}";48.84857299938859, 2.3982370000318514
1788;OGATEAU;135;RUE DES PYRENEES;0;;2.403351;48.857966;"{""coordinates"": [2.403350999549273, 48.85796599893084], ""type"": ""Point""}";48.85796599893084, 2.403350999549273
1490;PHARMACIE DES ENFANTS ROUGES;47;RUE DE BRETAGNE;0;;2.36149;48.863277;"{""coordinates"": [2.361489999371818, 48.86327699884666], ""type"": ""Point""}";48.86327699884666, 2.361489999371818
1521;LES MINIMES;36;RUE DE TURENNE;0;;2.36458;48.857537;"{""coordinates"": [2.364580000364204, 48.85753699943955], ""type"": ""Point""}";48.85753699943955, 2.364580000364204
1564;LES BOTTES DE 7 LIEUES;2;RUE DUCHEFDELAVILLE;0;;2.370777;48.832556;"{""coordinates"": [2.3707770001265724, 48.83255599921815], ""type"": ""Point""}";48.83255599921815, 2.3707770001265724
1575;LIQUIDERIE CAVE;9;RUE DES TROIS BORNES;0;;2.371716;48.866405;"{""coordinates"": [2.3717159994461143, 48.866404999508575], ""type"": ""Point""}";48.866404999508575, 2.3717159994461143
1626;PARIS DABANG;6;RUE DE LA FOLIE-MERICOURT;0;;2.374718;48.861536;"{""coordinates"": [2.374718000286703, 48.86153599884668], ""type"": ""Point""}";48.86153599884668, 2.374718000286703
1629;YUMAN;70;RUE DU CHEVALERET;0;;2.374884;48.830807;"{""coordinates"": [2.374883999676952, 48.830806999194664], ""type"": ""Point""}";48.830806999194664, 2.374883999676952
1656;LA CANTINE DE BELLEVILLE;108;BOULEVARD DE BELLEVILLE;0;;2.378761;48.870785;"{""coordinates"": [2.378761000538178, 48.870784999090105], ""type"": ""Point""}";48.870784999090105, 2.378761000538178
1662;NONNA TRIPLETTA;90;BOULEVARD DE BELLEVILLE;0;;2.379386;48.870297;"{""coordinates"": [2.3793860005555993, 48.870296998943324], ""type"": ""Point""}";48.870296998943324, 2.3793860005555993
1670;CHEZ VERO;33;RUE RAMPONEAU;0;;2.380443;48.871437;"{""coordinates"": [2.38044299952568, 48.87143699919247], ""type"": ""Point""}";48.87143699919247, 2.38044299952568
1690;HELLO YOU;5;RUE FRANCOISE DOLTO;0;;2.382581;48.829225;"{""coordinates"": [2.382581000365653, 48.82922499869451], ""type"": ""Point""}";48.82922499869451, 2.382581000365653
1702;L EDELWEISS;2;RUE DE DIJON;0;;2.385666;48.835336;"{""coordinates"": [2.3856660000443046, 48.835335999311035], ""type"": ""Point""}";48.835335999311035, 2.3856660000443046
1723;PATISSERIE DE L EGLISE;10;RUE DU JOURDAIN;0;;2.38963;48.875096;"{""coordinates"": [2.389629999534166, 48.87509599947056], ""type"": ""Point""}";48.87509599947056, 2.389629999534166
1733;CAFE DARLING;88;AVENUE PHILIPPE-AUGUSTE;0;;2.391875;48.85527;"{""coordinates"": [2.391874999850241, 48.855269998837706], ""type"": ""Point""}";48.855269998837706, 2.391874999850241
1871;GREEN PARK HOTEL PARIS;4;RUE HASSARD;0;;2.38419;48.878357;"{""coordinates"": [2.38418999995256, 48.878356999200335], ""type"": ""Point""}";48.878356999200335, 2.38418999995256
1872;IBIS STYLES PARIS MONTMARTRE NORD;77;RUE DU RUISSEAU;0;;2.340924;48.895262;"{""coordinates"": [2.3409240004013645, 48.89526199944514], ""type"": ""Point""}";48.89526199944514, 2.3409240004013645
